brewery_name,brewery_rating,num_reviews,beer_avg,num_beers,address,type,city,state,lon,lat,full_city,city_lon,city_lat
603 Brewery,NA,NA,3.75,20.0,"12 Liberty Dr Unit 7 Londonderry, New Hampshire, 03053-2286 United States ",Brewery,Londonderry,New Hampshire,-71.36298959999999,42.9161384,"Londonderry, New Hampshire",-71.3739272,42.86512980000001
7th Settlement Brewery,4.23,24.0,3.61,41.0,"47 Washington St Dover, New Hampshire, 03820-3877 United States ","Brewery, Bar, Eatery",Dover,New Hampshire,-70.873599,43.1951587,"Dover, New Hampshire",-70.8736698,43.1978624
Agner & Wolf Brewery Corp.,NA,NA,3.61,4.0,"4 Bud Way Ste 16 Nashua, New Hampshire, 03063-1740 United States ",Brewery,Nashua,New Hampshire,-71.5019117,42.776001,"Nashua, New Hampshire",-71.46756599999999,42.7653662
Ashuelot Brewing Company,NA,NA,NA,0.0,"101 Old County Rd Richmond, New Hampshire, 03470 United States",Brewery,Richmond,New Hampshire,-72.2337508,42.7595702,"Richmond, New Hampshire",-72.27158760000002,42.7544657
Bad Lab Beer Co.,NA,NA,NA,4.0,"460 High St Somersworth, New Hampshire, 03878-1012 United States ",Brewery,Somersworth,New Hampshire,-70.8817634,43.2303967,"Somersworth, New Hampshire",-70.8653372,43.2617503
Beara Irish Brewing Co.,4.12,5.0,3.6,22.0,"2800 Lafayette Rd Portsmouth, New Hampshire, 03801-5915 United States ","Brewery, Bar, Eatery",Portsmouth,New Hampshire,-70.7900722,43.02918589999999,"Portsmouth, New Hampshire",-70.7625532,43.0717552
Belgian Mare Brewery,NA,NA,3.39,7.0,"207 Gilsum Mine Rd East Alstead, New Hampshire, 03602-3915 United States ",Brewery,East Alstead,New Hampshire,-72.2856131,43.1124143,"East Alstead, New Hampshire",-72.2789753,43.1239666
Big Water Brewery,NA,NA,3.17,8.0,"24 Robie Rd Salisbury, New Hampshire, 03268-5423 United States ",Brewery,Salisbury,New Hampshire,-71.7169959,43.4091973,"Salisbury, New Hampshire",-71.7170222,43.3800768
Blackstone Brewing Company,NA,NA,NA,4.0,"7 Austin Rd Amherst, New Hampshire, 03031 United States",Brewery,Amherst,New Hampshire,-71.6070457,42.89641080000001,"Amherst, New Hampshire",-71.6253487,42.8614748
Border Brew Supply,3.85,10.0,3.39,11.0,"224 N Boradway Salem, New Hampshire, 03079-2145 United States ","Brewery, Bar",Salem,New Hampshire,-71.23382819999999,42.78961049999999,"Salem, New Hampshire",-71.2008912,42.78855530000001
Burnt Timber Brewing,NA,NA,NA,5.0,"Wolfeboro, New Hampshire, 03894, United States",Brewery,Wolfeboro,New Hampshire,-71.20947989999999,43.5852069,"Wolfeboro, New Hampshire",-71.20947989999999,43.5852069
Candia Road Brewing Company,4.67,10.0,3.64,12.0,"840 Candia Rd Manchester, New Hampshire, 03109-5201 United States ",Brewery,Manchester,New Hampshire,-71.41300509999999,42.9849591,"Manchester, New Hampshire",-71.4547891,42.9956397
Canterbury AleWorks,NA,NA,3.61,14.0,"305 Baptist Hill Rd Canterbury, New Hampshire, 03224-2509 United States ",Brewery,Canterbury,New Hampshire,-71.514568,43.3860038,"Canterbury, New Hampshire",-71.5652802,43.3372738
Deciduous Brewing Company,4.52,21.0,4.01,31.0,"12 Weaver St Ste B Newmarket, New Hampshire, 03857-2308 United States","Brewery, Bar",Newmarket,New Hampshire,-70.936906,43.0811617,"Newmarket, New Hampshire",-70.9350382,43.0828551
Earth Eagle Brewings,4.39,64.0,3.78,113.0,"165 High St Portsmouth, New Hampshire, 03801-3708 United States","Brewery, Bar, Eatery",Portsmouth,New Hampshire,-70.75949200000001,43.079052,"Portsmouth, New Hampshire",-70.7625532,43.0717552
Elm City Brewing Co.,3.83,50.0,3.58,23.0,"222 West St Keene, New Hampshire, 03431-2455 United States ","Brewery, Bar, Eatery",Keene,New Hampshire,-72.28699999999999,42.9322276,"Keene, New Hampshire",-72.2781409,42.933692
Flying Goose Brew Pub & Grille,3.9,57.0,3.59,47.0,"40 Andover Rd New London, New Hampshire, 03257-5901 United States ","Brewery, Bar, Eatery",New London,New Hampshire,-71.9603647,43.399497,"New London, New Hampshire",-71.97569899999999,43.4284925
Four Pines Brewing Company,NA,NA,NA,0.0,"845 Lafayette Rd Hampton, New Hampshire, 03842 United States",Brewery,Hampton,New Hampshire,-70.83180229999999,42.9523796,"Hampton, New Hampshire",-70.83892190000002,42.93759319999999
From The Barrel Brewing Company,4.29,24.0,3.81,36.0,"15 Londonderry Rd Unit 9 Londonderry, New Hampshire, 03053-3388 United States ","Brewery, Bar",Londonderry,New Hampshire,-71.34108069999999,42.8763713,"Londonderry, New Hampshire",-71.3739272,42.86512980000001
Garrison City Beerworks,4.12,26.0,3.87,38.0,"455 Central Ave Dover, New Hampshire, 03820-3406 United States ","Brewery, Bar",Dover,New Hampshire,-70.87371329999999,43.1975592,"Dover, New Hampshire",-70.8736698,43.1978624
Great North Aleworks,NA,NA,3.96,22.0,"1050 Holt Ave Unit 14 Manchester, New Hampshire, 03109-5615 United States ",Brewery,Manchester,New Hampshire,-71.4017853,42.9777603,"Manchester, New Hampshire",-71.4547891,42.9956397
Great Rhythm Brewing Company,4.32,3.0,3.95,10.0,"105 Bartlett St Portsmouth, New Hampshire, 03801 United States ","Brewery, Bar",Portsmouth,New Hampshire,-70.76999599999999,43.0734493,"Portsmouth, New Hampshire",-70.7625532,43.0717552
Haven Hill Brewers,NA,NA,NA,3.0,"206 Lowell St Rochester, New Hampshire, 03867-4521 United States",Brewery,Rochester,New Hampshire,-70.9470312,43.2780285,"Rochester, New Hampshire",-70.97561859999999,43.304526
Henniker Brewing Co.,NA,NA,3.92,13.0,"129 Centervale Rd Henniker, New Hampshire, 03242-3280 United States ",Brewery,Henniker,New Hampshire,-71.78046499999999,43.17737,"Henniker, New Hampshire",-71.82228719999999,43.1798323
Hobbs Tavern & Brewing Co.,3.54,13.0,3.32,25.0,"2415 White Mountain Hwy PO Box 539 West Ossipee, New Hampshire, 03890-0539 United States ","Brewery, Bar, Eatery",West Ossipee,New Hampshire,-71.20521219999999,43.8227303,"West Ossipee, New Hampshire",-71.2047919,43.8247967
Kelsen Brewing Company,4.19,8.0,4.15,13.0,"80 N High St Unit 3 Derry, New Hampshire, 03038-2272 United States ","Brewery, Bar",Derry,New Hampshire,-71.33353400000001,42.8896518,"Derry, New Hampshire",-71.3273346,42.8806437
Liars' Bench Beer Company,NA,NA,3.41,11.0,"459 Islington St Portsmouth, New Hampshire, 03801-4291 United States",Brewery,Portsmouth,New Hampshire,-70.7685789,43.0722885,"Portsmouth, New Hampshire",-70.7625532,43.0717552
Litherman's Limited Brewing Company,NA,NA,3.77,9.0,"126B Hall St Concord, New Hampshire, 03301 United States ","Brewery, Bar",Concord,New Hampshire,-71.5252782,43.1809239,"Concord, New Hampshire",-71.5375718,43.2081366
Martha's Exchange,3.76,73.0,3.62,69.0,"185 Main St Nashua, New Hampshire, 03060-2701 United States ","Brewery, Bar, Eatery",Nashua,New Hampshire,-71.4654801,42.760417,"Nashua, New Hampshire",-71.46756599999999,42.7653662
Milly's Tavern / Stark Brewing Company,3.8,58.0,3.61,35.0,"500 N Commercial St Manchester, New Hampshire, 03101-1151 United States ","Brewery, Bar, Eatery",Manchester,New Hampshire,-71.4679349,42.9946511,"Manchester, New Hampshire",-71.4547891,42.9956397
Millyard Brewery,NA,NA,NA,5.0,"25 E Otterson St Nashua, New Hampshire, 03060-3941 United States ","Brewery, Bar",Nashua,New Hampshire,-71.4597465,42.7544135,"Nashua, New Hampshire",-71.46756599999999,42.7653662
Moat Mountain Smoke House & Brewing Co.,4.0,128.0,3.75,28.0,"3378 White Mtn Hwy North Conway, New Hampshire, 03860-5189 United States ","Brewery, Bar, Eatery",North Conway,New Hampshire,-71.1435882,44.0684596,"North Conway, New Hampshire",-71.1284041,44.0536805
Mooselick Brewing,3.3,2.0,3.64,9.0,"246 N Main St Troy, New Hampshire, 03465-2660 United States ","Brewery, Bar",Troy,New Hampshire,-72.18971979999999,42.8441954,"Troy, New Hampshire",-72.1771541,42.8314347
Neighborhood Beer Co.,3.98,2.0,3.63,14.0,"156 Epping Rd Exeter, New Hampshire, 03833-4521 United States ","Brewery, Bar",Exeter,New Hampshire,-70.97184349999999,42.9940581,"Exeter, New Hampshire",-70.9477546,42.9814292
Oddball Brewing Co.,NA,NA,3.51,6.0,"6 Glass St Suncook, New Hampshire, 03275 United States","Brewery, Bar",Suncook,New Hampshire,-71.452404,43.1307927,"Suncook, New Hampshire",-71.4531241,43.130638
One Love Brewery,3.57,3.0,NA,0.0,"25 S Mountain Dr Unit 4 PO Box 304 Lincoln, New Hampshire, 03251-0304 United States ","Brewery, Bar, Eatery",Lincoln,New Hampshire,-71.6691038,44.0420177,"Lincoln, New Hampshire",-71.67250659999999,44.0380087
One Love Brewery,NA,NA,NA,2.0,"47 Washington St Dover, New Hampshire, 03820-3877 United States ",Brewery,Dover,New Hampshire,-70.873599,43.1951587,"Dover, New Hampshire",-70.8736698,43.1978624
Out.Haus Ales,NA,NA,3.59,16.0,"49 Lucas Pond Rd Northwood, New Hampshire, 03261-4310 United States ",Brewery,Northwood,New Hampshire,-71.1629306,43.1834801,"Northwood, New Hampshire",-71.15089689999999,43.194249
Pipe Dream Brewing,3.69,1.0,3.31,12.0,"49 Harvey Rd Londonderry, New Hampshire, 03053-7442 United States","Brewery, Bar",Londonderry,New Hampshire,-71.4201277,42.9086637,"Londonderry, New Hampshire",-71.3739272,42.86512980000001
Portsmouth Brewery,4.21,345.0,3.83,112.0,"56 Market St Portsmouth, New Hampshire, 03801-3705 United States ","Brewery, Bar, Eatery",Portsmouth,New Hampshire,-70.7577823,43.0779035,"Portsmouth, New Hampshire",-70.7625532,43.0717552
Redhook Ale Brewery,NA,NA,3.57,48.0,"1 Redhook Way Portsmouth, New Hampshire, 03801-6853 United States ",Brewery,Portsmouth,New Hampshire,-70.80363609999999,43.0880421,"Portsmouth, New Hampshire",-70.7625532,43.0717552
Redhook Brewery & Cataqua Public House,3.79,108.0,3.57,48.0,"1 Redhook Way Portsmouth, New Hampshire, 03801-6853 United States ","Brewery, Bar, Eatery",Portsmouth,New Hampshire,-70.80363609999999,43.0880421,"Portsmouth, New Hampshire",-70.7625532,43.0717552
Rockingham Brewing Company,4.28,8.0,3.86,17.0,"1 Corporate Park Dr Unit 1 Derry, New Hampshire, 03038-2276 United States ","Brewery, Bar",Derry,New Hampshire,-71.334468,42.8865881,"Derry, New Hampshire",-71.3273346,42.8806437
Schilling Beer Co.,4.29,47.0,4.12,41.0,"18 Mill St Littleton, New Hampshire, 03561-4000 United States ","Brewery, Bar, Eatery",Littleton,New Hampshire,-71.7728616,44.3059032,"Littleton, New Hampshire",-71.7701237,44.3061628
Shackett's Brewing Company,NA,NA,3.83,5.0,"30C Lake St Bristol, New Hampshire, 03222-3568 United States ",Brewery,Bristol,New Hampshire,-71.7358533,43.6337438,"Bristol, New Hampshire",-71.7367162,43.5911499
Smuttynose Brewing Company,4.24,101.0,3.91,63.0,"105 Towle Farm Rd Hampton, New Hampshire, 03842-1806 United States ","Brewery, Bar",Hampton,New Hampshire,-70.8546289,42.9456299,"Hampton, New Hampshire",-70.83892190000002,42.93759319999999
Squam Brewing,NA,NA,3.71,13.0,"118 Perch Pond Rd Holderness, New Hampshire, 03245-5234 United States ",Brewery,Holderness,New Hampshire,-71.5898459,43.7848467,"Holderness, New Hampshire",-71.5884095,43.7320175
Stoneface Brewing Co.,4.08,71.0,4.06,29.0,"436 Shattuck Way Newington, New Hampshire, 03801-7838 United States","Brewery, Bar",Newington,New Hampshire,-70.8189381,43.1154164,"Newington, New Hampshire",-70.8336668,43.1000871
Swift Current Brewing Co.,NA,NA,3.36,11.0,"500 North Commercial St Manchester, New Hampshire, 03101-1151 United States ",Brewery,Manchester,New Hampshire,-71.4679349,42.9946511,"Manchester, New Hampshire",-71.4547891,42.9956397
The Able Ebenezer Brewing Company,3.59,20.0,3.38,8.0,"31 Columbia Cir Merrimack, New Hampshire, 03054-4161 United States ","Brewery, Bar",Merrimack,New Hampshire,-71.493268,42.8526218,"Merrimack, New Hampshire",-71.49483219999999,42.8678693
The Brewers Of Nye Hill Farm,NA,NA,NA,2.0,"250 Middletown Rd Roxbury Center, New Hampshire, 03431 United States ",Brewery,Roxbury Center,New Hampshire,-72.2354852,42.9325157,"Roxbury Center, New Hampshire",-72.20585,42.9549844
The Lone Wolfe Brewing Co.,4.04,9.0,3.76,23.0,"39 N Main St Wolfeboro, New Hampshire, 03894 United States ","Brewery, Bar",Wolfeboro,New Hampshire,-71.21809979999999,43.5859973,"Wolfeboro, New Hampshire",-71.20947989999999,43.5852069
The Prodigal Brewery,NA,NA,3.84,14.0,"678 Town House Rd Effingham, New Hampshire, 03882-8533 United States ",Brewery,Effingham,New Hampshire,-71.0677278,43.7424113,"Effingham, New Hampshire",-70.996455,43.7611873
The Seven Barrel Brewery,3.69,46.0,3.62,25.0,"5 Airport Rd West Lebanon, New Hampshire, 03784-1658 United States ","Brewery, Bar, Eatery",West Lebanon,New Hampshire,-72.3198427,43.62998779999999,"West Lebanon, New Hampshire",-72.31060649999999,43.6446508
Throwback Brewery,3.98,34.0,3.84,42.0,"7 Hobbs Rd North Hampton, New Hampshire, 03862 United States ","Brewery, Bar, Eatery",North Hampton,New Hampshire,-70.8341562,42.9798857,"North Hampton, New Hampshire",-70.8351792,42.9737623
Tuckerman Brewing Co.,NA,NA,3.7,5.0,"64 Hobbs St Conway, New Hampshire, 03818-6131 United States ",Brewery,Conway,New Hampshire,-71.1296072,43.9752357,"Conway, New Hampshire",-71.1203479,43.9791831
White Birch Brewing,4.23,32.0,3.7,42.0,"1339 Hooksett Rd Hooksett, New Hampshire, 03106-1847 United States ","Brewery, Bar",Hooksett,New Hampshire,-71.4416123,43.05855589999999,"Hooksett, New Hampshire",-71.46512830000002,43.0967213
White Mountain Brewing Company,NA,NA,NA,1.0,"50 Winter St Ashland, New Hampshire, 03217-4529 United States","Brewery, Bar",Ashland,New Hampshire,-71.6342797,43.6928785,"Ashland, New Hampshire",-71.6306317,43.695318
Woodstock Inn Brewery,3.79,82.0,3.48,27.0,"135 Main St PO Box 118 North Woodstock, New Hampshire, 03262-0118 United States ","Brewery, Bar, Eatery",North Woodstock,New Hampshire,-71.6869033,44.03241360000001,"North Woodstock, New Hampshire",-71.6864932,44.0302045
12 Gates Brewing Company,3.65,4.0,3.71,10.0,"80 Earhart Dr Williamsville, New York, 14221 United States ","Brewery, Bar, Eatery",Williamsville,New York,-78.7147458,42.9543015,"Williamsville, New York",-78.73780909999999,42.963947
1940's Brewing Company,NA,NA,2.71,7.0,"25 Farragut Rd Old Bethpage, New York, 11804-1227 United States",Brewery,Old Bethpage,New York,-73.455304,40.767974,"Old Bethpage, New York",-73.4531786,40.7625993
2 Way Brewing Company,3.88,12.0,3.71,15.0,"18 W Main St Beacon, New York, 12508-2512 United States","Brewery, Bar",Beacon,New York,-73.9810105,41.50836750000001,"Beacon, New York",-73.9695832,41.5048158
212 Brewing Company,NA,NA,NA,1.0,"902 Broadway Fl 6 New York, New York, 10010-6039 United States ",Brewery,New York,New York,-73.989285,40.7393898,"New York, New York",-74.0059413,40.7127837
42 North Brewing Company,4.54,5.0,4.09,11.0,"25 Pine St East Aurora, New York, 14052 United States ","Brewery, Bar, Eatery",East Aurora,New York,-78.60791239999999,42.76865979999999,"East Aurora, New York",-78.6133589,42.7678376
A Taste of Long Island,NA,NA,NA,2.0,"211 Main St Ste A Farmingdale, New York, 11735-2675 United States",Brewery,Farmingdale,New York,-73.4458301,40.734091,"Farmingdale, New York",-73.4454009,40.7325997
Abandon Brewing Co.,4.41,30.0,3.97,69.0,"2994 Merrit Hill Rd Penn Yan, New York, 14527-8938 United States ","Brewery, Bar",Penn Yan,New York,-77.10491499999999,42.631829,"Penn Yan, New York",-77.0538577,42.6609026
Adirondack Pub & Brewery,3.79,53.0,3.74,52.0,"33 Canada Street Lake George, New York, 12845 United States ","Brewery, Bar, Eatery",Lake George,New York,-73.714111,43.418521,"Lake George, New York",-73.71234079999999,43.4261809
Alphabet City Brewing Company,NA,2.0,3.71,3.0,"E 7th St & Avenue A New York, New York, 10009 United States ",Brewery,New York,New York,-118.1365904,33.775347,"New York, New York",-74.0059413,40.7127837
Amber Lantern Brewing Company,1.79,1.0,NA,9.0,"44 N Main St Warsaw, New York, 14569 United States ","Brewery, Bar, Eatery",Warsaw,New York,-78.1324206,42.7408874,"Warsaw, New York",-78.1327881,42.740061
Andean Brewing Company,3.96,4.0,3.69,17.0,"300 Bradley Corporate Dr Blauvelt, New York, 10913 United States ","Brewery, Bar",Blauvelt,New York,-73.95417100000002,41.079567,"Blauvelt, New York",-73.95763780000001,41.0634299
Argyle Brewing Company,4.28,4.0,3.61,5.0,"One Main Street Greenwich, New York, 12834 United States ","Brewery, Bar",Greenwich,New York,-73.49673729999999,43.0876762,"Greenwich, New York",-73.4992824,43.0901395
Arrowood Farms,NA,NA,NA,4.0,"236 Lower Whitfield Rd Accord, New York, 12404-5809 United States ",Brewery,Accord,New York,-74.2501406,41.805443,"Accord, New York",-74.2290366,41.7856489
Artisanal Brew Works,NA,NA,NA,2.0,"41 Geyser Rd Saratoga Springs, New York, 12866-9038 United States ","Brewery, Bar",Saratoga Springs,New York,-73.81448999999999,43.059909,"Saratoga Springs, New York",-73.7845651,43.0831301
Aurora Ale & Lager Co.,NA,NA,NA,0.0,"​1891 NY-90 N King Ferry, New York, 13081 United States","Brewery, Bar",King Ferry,New York,-76.6365831,42.664589,"King Ferry, New York",-76.6166113,42.6653487
Ausable Brewing Co.,4.3,2.0,3.84,13.0,"765 Mace Chasm Rd Keeseville, New York, 12944-2425 United States ","Brewery, Bar",Keeseville,New York,-73.44775299999999,44.503003,"Keeseville, New York",-73.4801348,44.5050479
Bacchus & The Brewery at Bacchus,4.07,26.0,4.17,38.0,"4 South Chestnut St New Paltz, New York, 12561 United States ","Brewery, Bar, Eatery",New Paltz,New York,-74.086675,41.7471276,"New Paltz, New York",-74.0868095,41.7475933
Bacchus Brewing Company,NA,NA,3.33,11.0,"15 Ellis Dr Dryden, New York, 13053-9630 United States ",Brewery,Dryden,New York,-76.3005106,42.4993567,"Dryden, New York",-76.2971553,42.4909053
Bandwagon Brew Pub,3.7,24.0,3.4,62.0,"114 North Cayuga Street Ithaca, New York, 14850 United States ","Brewery, Bar, Eatery",Ithaca,New York,-76.4993126,42.4398598,"Ithaca, New York",-76.5018807,42.4439614
BarkEater Craft Brewery,4.43,1.0,NA,20.0,"5411 Shady Ave Lowville, New York, 13367-1601 United States ","Brewery, Bar",Lowville,New York,-75.4915608,43.7868927,"Lowville, New York",-75.4918505,43.786736
Barker Brewing,NA,NA,NA,5.0,"1693 East Ave Barker, New York, 14012-9547 United States ","Brewery, Bar, Eatery",Barker,New York,-78.5496914,43.3292431,"Barker, New York",-78.5547512,43.3300567
Barrage Brewing Company LLC,NA,NA,3.92,36.0,"32 Allen Blvd Ste E Farmingdale, New York, 11735-5625 United States ",Brewery,Farmingdale,New York,-73.424747,40.716112,"Farmingdale, New York",-73.4454009,40.7325997
Barrier Brewing Company,4.46,44.0,3.93,116.0,"3001 New St Unit 2a Oceanside, New York, 11572 United States ","Brewery, Bar",Oceanside,New York,-73.65652659999999,40.6392943,"Oceanside, New York",-73.6401296,40.6387141
Battle Hill Brewing Company,3.85,1.0,3.45,10.0,"4 Charles St Fort Ann, New York, 12827 United States ","Brewery, Bar, Eatery",Fort Ann,New York,-73.48738999999999,43.416899,"Fort Ann, New York",-73.48761240000002,43.4142375
Becker Brewing Company,NA,NA,3.53,10.0,"3760 Quaker Rd. Gasport, New York, 14067 United States ",Brewery,Gasport,New York,-78.56359929999999,43.2231467,"Gasport, New York",-78.5761394,43.1992244
Bellport Brewing Company,NA,NA,NA,3.0,"14 Station Rd Bellport, New York, 11713-2444 United States ",Brewery,Bellport,New York,-72.9395521,40.757824,"Bellport, New York",-72.9392727,40.75704289999999
Bernheim and Schwartz,4.2,3.0,NA,10.0,"2911 Broadway New York, New York, 10025-7823 United States ","Brewery, Bar, Eatery",New York,New York,-73.9653429,40.8066004,"New York, New York",-74.0059413,40.7127837
Big Alice Brewing,4.12,14.0,3.71,31.0,"808 43rd Rd Queens, New York, 11101-6820 United States ","Brewery, Bar",Queens,New York,-73.95059049999999,40.7520775,"Queens, New York",-73.7948516,40.7282239
Big Ditch Brewing Company,4.07,19.0,3.8,22.0,"55 E Huron St Buffalo, New York, 14203-1632 United States ","Brewery, Bar, Eatery",Buffalo,New York,-78.8709209,42.8878118,"Buffalo, New York",-78.8783689,42.88644679999999
Big Tupper Brewing,NA,NA,NA,3.0,"96 Park St Tupper Lake, New York, 12986-1719 United States ",Brewery,Tupper Lake,New York,-74.464777,44.223137,"Tupper Lake, New York",-74.4640575,44.2239488
Binghamton Brewing Company,NA,NA,3.46,9.0,"15 Avenue B Johnson City, New York, 13790-2234 United States ",Brewery,Johnson City,New York,-75.95353999999999,42.11523200000001,"Johnson City, New York",-75.95880919999999,42.1156308
Birdland Brewing Company,4.5,10.0,3.79,16.0,"1015 Kendall St Horseheads, New York, 14845-2216 United States ","Brewery, Bar",Horseheads,New York,-76.83352670000001,42.1567546,"Horseheads, New York",-76.8205119,42.167019
Black Forest Brew Haus,3.85,51.0,3.82,36.0,"2015 New Highway Farmingdale, New York, 11735 United States ","Brewery, Bar, Eatery",Farmingdale,New York,-73.4144251,40.7550384,"Farmingdale, New York",-73.4454009,40.7325997
Blue Collar Brewery Inc.,3.36,9.0,3.5,10.0,"40 Cottage St Poughkeepsie, New York, 12601-2015 United States ","Brewery, Bar, Eatery",Poughkeepsie,New York,-73.9182416,41.7073612,"Poughkeepsie, New York",-73.9209701,41.7003713
Blue Line Brewery,NA,NA,3.18,9.0,"555 Lake Flower Ave Saranac Lake, New York, 12983-2465 United States ",Brewery,Saranac Lake,New York,-74.116118,44.313221,"Saranac Lake, New York",-74.1312662,44.329496
Blue Point Brewing Company,4.01,12.0,3.67,50.0,"161 River Avenue Patchogue, New York, 11772 United States ","Brewery, Bar",Patchogue,New York,-73.0215951,40.7592223,"Patchogue, New York",-73.01934299999999,40.7659783
Bomb Beer Company,NA,NA,3.13,1.0,"648 Broadway #904 New York, New York, 10012 United States ",Brewery,New York,New York,-73.99531259999999,40.726579,"New York, New York",-74.0059413,40.7127837
Bottomless Brewing,4.08,5.0,3.71,9.0,"3543 E Lake Rd Geneva, New York, 14456-9261 United States ","Brewery, Bar, Eatery",Geneva,New York,-76.9331639,42.8547513,"Geneva, New York",-76.985557,42.8679836
Braven Brewing Company,NA,NA,3.76,4.0,"Bushwick Brooklyn, New York, 11238 United States",Brewery,Brooklyn,New York,-73.96243270000001,40.6805029,"Brooklyn, New York",-73.9441579,40.6781784
Brew & Brats,NA,NA,NA,3.0,"6461 Route 64 Naples, New York, 14512-9726 United States ","Brewery, Bar, Eatery",Naples,New York,-77.38029399999999,42.7070334,"Naples, New York",-77.4024853,42.6153453
Brewery Ommegang,4.28,256.0,3.96,45.0,"656 County Hwy 33 BOX 656 Cooperstown, New York, 13326 United States ","Brewery, Bar, Eatery",Cooperstown,New York,-74.92432099999999,42.7006303,"Cooperstown, New York",-74.92432099999999,42.7006303
BrickHouse Brewery,3.73,41.0,3.73,54.0,"67 West Main Street Patchogue, New York, 11772 United States ","Brewery, Bar, Eatery",Patchogue,New York,-73.01680089999999,40.7661127,"Patchogue, New York",-73.01934299999999,40.7659783
Bridge and Tunnel Brewery,NA,NA,3.84,22.0,"1535 Decatur St Ridgewood Queens, New York, 11385-5818 United States ","Brewery, Bar",Queens,New York,-73.902835,40.693822,"Queens, New York",-73.7948516,40.7282239
Bridge and Tunnel Brewery,NA,NA,NA,12.0,"15-35 Decatur Street Ridgewood, New York, 11385-5818 United States ","Brewery, Bar",Ridgewood,New York,-73.902835,40.693822,"Ridgewood, New York",-73.9018292,40.7043986
Broken Bow Brewery,3.85,8.0,3.56,34.0,"173 Marbledale Rd Tuckahoe, New York, 10707-3117 United States ","Brewery, Bar",Tuckahoe,New York,-73.8190429,40.9550346,"Tuckahoe, New York",-73.827356,40.9503764
Brooklyn Brewery,4.11,113.0,3.86,75.0,"79 North Eleventh Street Brooklyn, New York, 11249 United States ","Brewery, Bar",Brooklyn,New York,-73.957258,40.721645,"Brooklyn, New York",-73.9441579,40.6781784
Brown's Brewing Company,3.98,70.0,3.68,61.0,"417 River St. Troy, New York, 12180 United States ","Brewery, Bar, Eatery",Troy,New York,-73.687704,42.735771,"Troy, New York",-73.69178509999999,42.7284117
Buffalo Brewing Company,4.15,1.0,NA,5.0,"314 Myrtle Ave Buffalo, New York, 14204-2058 United States ","Brewery, Bar",Buffalo,New York,-78.85808689999999,42.8782741,"Buffalo, New York",-78.8783689,42.88644679999999
Buffalo Brewpub,3.4,36.0,2.81,8.0,"6861 Main St Williamsville, New York, 14221 United States ","Brewery, Bar, Eatery",Williamsville,New York,-78.6979152,42.96491899999999,"Williamsville, New York",-78.73780909999999,42.963947
Bull & Barrel Brew Pub,3.67,9.0,3.54,40.0,"988 Route 22 Brewster, New York, 10509-1576 United States ","Brewery, Bar, Eatery",Brewster,New York,-73.602364,41.397413,"Brewster, New York",-73.6170721,41.3973163
Buster's Brew Pub,3.92,3.0,2.4,6.0,"Bldg P-4350, Commons, 2nd Street Fort Drum, New York, 13602 United States ","Brewery, Eatery",Fort Drum,New York,-75.76549,44.031805,"Fort Drum, New York",-75.7487779,44.05804819999999
Butternuts Beer & Ale,NA,NA,3.63,14.0,"4021 State Highway 51 Garrattsville, New York, 13342 United States ",Brewery,Garrattsville,New York,-75.19098799999999,42.623539,"Garrattsville, New York",-75.17183059999999,42.6472968
C.H. Evans Brewing Company,4.04,111.0,3.84,56.0,"19 Quackenbush Square Albany, New York, 12207 United States ","Brewery, Eatery",Albany,New York,-73.74776,42.654103,"Albany, New York",-73.7562317,42.6525793
Callicoon Brewing Company,4.25,1.0,NA,3.0,"16 Hortonville Main Street Callicoon, New York, 12723-5115 United States ","Brewery, Bar, Eatery",Callicoon,New York,-75.0312718,41.7607383,"Callicoon, New York",-75.05627849999999,41.7673105
Captain Lawrence Brewing Co.,4.29,83.0,3.87,138.0,"444 Saw Mill River Rd Elmsford, New York, 10523-1030 United States ","Brewery, Bar",Elmsford,New York,-73.81519300000001,41.0700703,"Elmsford, New York",-73.8201337,41.0550969
Catskill Brewery,NA,NA,4.08,20.0,"672 Old Route 17 Livingston Manor, New York, 12758-5031 United States ",Brewery,Livingston Manor,New York,-74.82435199999999,41.906821,"Livingston Manor, New York",-74.82821670000001,41.9003667
Cave Mountain Brewing Company,3.56,16.0,3.61,17.0,"5359 Rt. 23 (Main Street) Windham, New York, 12496 United States ","Brewery, Bar, Eatery",Windham,New York,-74.2520875,42.3073065,"Windham, New York",-74.2520875,42.3073065
CB Craft Brewers,3.86,11.0,3.66,85.0,"300 Village Square Blvd. Honeoye Falls, New York, 14472 United States ","Brewery, Bar",Honeoye Falls,New York,-77.60347519999999,42.9520817,"Honeoye Falls, New York",-77.5902759,42.9522855
"Chatham Brewing, LLC",3.4,3.0,3.78,43.0,"59 Main St Chatham, New York, 12307 United States ","Brewery, Bar, Eatery",Chatham,New York,-73.5952376,42.3632658,"Chatham, New York",-73.5948391,42.3642516
Chelsea Craft Brewing Company,3.58,33.0,3.71,36.0,"463 E 173rd St Bronx, New York, 10457 United States ","Brewery, Bar, Eatery",Bronx,New York,-73.901452,40.8417422,"Bronx, New York",-73.86542949999999,40.8370495
"Chersi Sodas (Sparkling Blends, LLC)",NA,NA,NA,2.0,"507 Brown Ct Oceanside, New York, 11572-4801 United States ",Brewery,Oceanside,New York,-73.6537187,40.6244987,"Oceanside, New York",-73.6401296,40.6387141
City Island Beer Company,NA,NA,3.65,2.0,"PO Box 76 Bronx, New York, 10466-0076 United States ",Brewery,Bronx,New York,-73.8477874,40.8887394,"Bronx, New York",-73.86542949999999,40.8370495
Clemson Bros. Brewery,3.92,4.0,NA,6.0,"22 Cottage St Middletown, New York, 10940-5059 United States ","Brewery, Bar, Eatery",Middletown,New York,-74.41573249999999,41.447482,"Middletown, New York",-74.42293409999999,41.4459271
Climbing Bines Hop Farm,3.86,25.0,3.54,37.0,"511 Hanson Point Rd Penn Yan, New York, 14527-9718 United States ","Brewery, Bar",Penn Yan,New York,-76.9414513,42.65960949999999,"Penn Yan, New York",-77.0538577,42.6609026
Common Roots Brewing Company,4.31,15.0,4.23,26.0,"58 Saratoga Ave South Glens Falls, New York, 12803-4837 United States ","Brewery, Bar",South Glens Falls,New York,-73.636534,43.295219,"South Glens Falls, New York",-73.63511679999999,43.2992389
Community Beer Works,NA,NA,3.94,22.0,"15 Lafayette Ave Buffalo, New York, 14213-1344 United States ",Brewery,Buffalo,New York,-78.89791129999999,42.9198593,"Buffalo, New York",-78.8783689,42.88644679999999
Coney Island Brewing Company,NA,NA,3.59,23.0,"1904 Surf Ave Brooklyn, New York, 11224 United States ",Brewery,Brooklyn,New York,-73.9844943,40.5748057,"Brooklyn, New York",-73.9441579,40.6781784
Cooper's Cave Ale Company,3.55,7.0,2.88,14.0,"2 Sagamore St Glens Falls, New York, 12801 United States ","Brewery, Bar, Eatery",Glens Falls,New York,-73.63999559999999,43.3176532,"Glens Falls, New York",-73.6440058,43.3095164
Cooperstown Brewing Company,3.52,10.0,3.43,8.0,"110 River Street Milford, New York, 13807 United States ","Brewery, Bar",Milford,New York,-74.940294,42.5893389,"Milford, New York",-74.9451573,42.59063219999999
Cortland Beer Company,3.87,3.0,3.54,14.0,"16 Court St Cortland, New York, 13045-2604 United States ","Brewery, Bar, Eatery",Cortland,New York,-76.1795116,42.5996472,"Cortland, New York",-76.1804843,42.6011813
Council Rock Brewery,3.78,27.0,3.59,18.0,"4861 State Highway 28 Cooperstown, New York, 13326 United States ","Brewery, Bar, Eatery",Cooperstown,New York,-74.960135,42.658817,"Cooperstown, New York",-74.92432099999999,42.7006303
Crafty Ales & Lagers,NA,NA,NA,7.0,"2 Exchange Street Phelps, New York, 14532 United States ",Brewery,Phelps,New York,-77.056861,42.957834,"Phelps, New York",-77.05747099999999,42.957564
Critz Farms Brewing & Cider Co.,NA,NA,NA,6.0,"3232 Rippleton Rd Cazenovia, New York, 13035 United States ",Brewery,Cazenovia,New York,-75.8735243,42.8805861,"Cazenovia, New York",-75.85269149999999,42.9300668
Crooked Ladder Brewing Company,3.75,18.0,3.63,41.0,"70 W Main St Riverhead, New York, 11901-2802 United States ","Brewery, Bar",Riverhead,New York,-72.6634406,40.9170864,"Riverhead, New York",-72.66204019999999,40.9170435
Crossroads Brewing Company,4.2,23.0,3.93,38.0,"21 2nd Street Athens, New York, 12015 United States ","Brewery, Bar, Eatery",Athens,New York,-73.80968969999999,42.260514,"Athens, New York",-73.8095707,42.2603648
Custom Tap Brews,NA,NA,3.54,3.0,"445 Saint Paul St Rochester, New York, 14605-1726 United States ",Brewery,Rochester,New York,-77.6152765,43.16423349999999,"Rochester, New York",-77.6109219,43.16103
Cuzett Libations,NA,NA,NA,2.0,"Brooklyn, New York, 11249, United States",Brewery,Brooklyn,New York,-73.9660683,40.7119031,"Brooklyn, New York",-73.9441579,40.6781784
Davidson Brothers Restaurant & Brewery,4.0,58.0,3.62,22.0,"184 Glen St. Glens Falls, New York, 12801 United States ","Brewery, Bar, Eatery",Glens Falls,New York,-73.6448013,43.3096189,"Glens Falls, New York",-73.6440058,43.3095164
Decadent Ales,NA,NA,NA,4.0,"607A E Boston Post Rd Mamaroneck, New York, 10530 United States ",Brewery,Mamaroneck,New York,-73.7275148,40.9518152,"Mamaroneck, New York",-73.7326309,40.94870969999999
Destination Unknown Beer Co.,4.12,4.0,3.71,16.0,"1 S Chicago Ave Bay Shore, New York, 11706-7000 United States","Brewery, Bar",Bay Shore,New York,-73.2294388,40.7340134,"Bay Shore, New York",-73.2453946,40.7250986
Dobler's Brewery and Tavern,NA,NA,NA,4.0,"1917 State Highway 205 Mount Vision, New York, 13810-1108 United States ","Brewery, Bar, Eatery",Mount Vision,New York,-75.06269259999999,42.5525896,"Mount Vision, New York",-75.05793899999999,42.5784098
Double Take Brewing Company,NA,NA,3.12,4.0,"445 Saint Paul Street Rochester, New York, 14605 United States",Brewery,Rochester,New York,-77.6152765,43.16423349999999,"Rochester, New York",-77.6109219,43.16103
Druthers Brewing Company,4.26,49.0,3.79,32.0,"381 Broadway Saratoga Springs, New York, 12866-3111 United States ","Brewery, Bar, Eatery",Saratoga Springs,New York,-73.7857636,43.0808669,"Saratoga Springs, New York",-73.7845651,43.0831301
Druthers Brewing Company,4.08,4.0,NA,2.0,"1053 Broadway Albany, New York, 12204-2505 United States ","Brewery, Bar, Eatery",Albany,New York,-73.74137499999999,42.665883,"Albany, New York",-73.7562317,42.6525793
Duncan's Abbey,NA,NA,NA,7.0,"27 Storm St Tarrytown, New York, 10591-3310 United States",Brewery,Tarrytown,New York,-73.86089299999999,41.078436,"Tarrytown, New York",-73.85874609999999,41.0762077
Eastwood Brewing Co.,3.78,5.0,3.8,16.0,"108 Walter Dr Syracuse, New York, 13206-2357 United States","Brewery, Bar",Syracuse,New York,-76.0980874,43.0698924,"Syracuse, New York",-76.14742439999999,43.0481221
Ellicottville Brewing Co.,4.21,15.0,3.77,25.0,"34 West Main St. Fredonia, New York, 14063 United States ","Brewery, Eatery",Fredonia,New York,-79.3322258,42.439162,"Fredonia, New York",-79.3317105,42.4400576
Ellicottville Brewing Co.,4.14,36.0,3.67,45.0,"28 Monroe Street Ellicottville, New York, 14731 United States ","Brewery, Eatery",Ellicottville,New York,-78.670644,42.2751183,"Ellicottville, New York",-78.67280710000001,42.2750639
Empire Brewing Company - Brewpub,4.07,93.0,3.79,41.0,"120 Walton St. Syracuse, New York, 13036 United States ","Brewery, Bar, Eatery",Syracuse,New York,-76.15460089999999,43.0481785,"Syracuse, New York",-76.14742439999999,43.0481221
Empire Brewing Company - Farmstead Brewery,4.06,1.0,NA,0.0,"33 Rippleton Rd Cazenovia, New York, 13035 United States ","Brewery, Bar, Eatery",Cazenovia,New York,-75.8633437,42.9201128,"Cazenovia, New York",-75.85269149999999,42.9300668
Erie Canal Brewing Company,NA,NA,NA,2.0,"135 James St Canastota, New York, 13032-1409 United States ",Brewery,Canastota,New York,-75.75419339999999,43.0756747,"Canastota, New York",-75.7507413,43.0795121
Evil Twin Brewing,NA,NA,3.93,108.0,"446 Kent Ave Apt 14A Brooklyn, New York, 11249-5921 United States ",Brewery,Brooklyn,New York,-73.9692701,40.7091999,"Brooklyn, New York",-73.9441579,40.6781784
Fairport Brewing Company,3.7,13.0,3.64,33.0,"99 S Main St Fairport, New York, 14450-2100 United States ","Brewery, Bar",Fairport,New York,-77.4416868,43.09881740000001,"Fairport, New York",-77.44193779999999,43.0986742
FarmHouse Brewery,4.6,8.0,3.79,14.0,"14 George St Owego, New York, 13827 United States ","Brewery, Bar",Owego,New York,-76.2693323,42.1112844,"Owego, New York",-76.2621549,42.1034075
Fifth Hammer Brewing,NA,NA,NA,0.0,"10-28 46th Ave Queens, New York, 11101 United States",Brewery,Queens,New York,-73.951539,40.746415,"Queens, New York",-73.7948516,40.7282239
Finback Brewery,4.31,28.0,4.08,72.0,"78-01 77th Ave Queens, New York, 11385-7518 United States ","Brewery, Bar",Queens,New York,-73.8732179,40.7065332,"Queens, New York",-73.7948516,40.7282239
Finger Lakes Beer Company,3.79,2.0,3.8,17.0,"8462 State Route 54 Hammondsport, New York, 14840 United States ","Brewery, Bar",Hammondsport,New York,-77.2260209,42.3994396,"Hammondsport, New York",-77.22358729999999,42.4078495
Fire Island Beer Company,NA,NA,3.5,6.0,"PO Box 546 Ocean Beach, New York, 11770 United States ",Brewery,Ocean Beach,New York,-73.1570589,40.6467664,"Ocean Beach, New York",-73.1570589,40.6467664
Five & 20 Spirits and Brewing,NA,NA,NA,5.0,"8398 W Main Rd Westfield, New York, 14787-9748 United States ","Brewery, Bar",Westfield,New York,-79.6067362,42.3074036,"Westfield, New York",-79.5781027,42.32228
Flying Belgian Brewery,NA,NA,NA,1.0,"2326 LaFayette St Bellmore, New York, 11710-2166 United States ",Brewery,Bellmore,New York,-73.54234699999999,40.68303,"Bellmore, New York",-73.5270709,40.6687125
Flying Bison Brewing Company,3.87,5.0,3.66,25.0,"840 Seneca St Buffalo, New York, 14210 United States ","Brewery, Bar",Buffalo,New York,-78.845775,42.8758161,"Buffalo, New York",-78.8783689,42.88644679999999
Folksbier Brewery,NA,NA,3.76,8.0,"103 Luquer St Brooklyn, New York, 11231-3308 United States",Brewery,Brooklyn,New York,-74.001187,40.6779213,"Brooklyn, New York",-73.9441579,40.6781784
Four Mile Brewing,4.55,6.0,4.2,19.0,"202 E Green St Olean, New York, 14760-3606 United States ","Brewery, Bar, Eatery",Olean,New York,-78.427463,42.07318,"Olean, New York",-78.42992699999999,42.083639
From The Ground Brewery,NA,NA,3.92,7.0,"245 Guski Rd Red Hook, New York, 12571-3316 United States ",Brewery,Red Hook,New York,-73.8800155,42.0472969,"Red Hook, New York",-73.87541139999999,41.9950919
Fulton Chain Craft Brewery,4.0,1.0,NA,21.0,"127 North St Old Forge, New York, 13420 United States ","Brewery, Bar",Old Forge,New York,-74.9703229,43.714856,"Old Forge, New York",-74.9734809,43.7100885
Gael Brewing Company,3.85,4.0,3.8,11.0,"4180 State Route 14 Geneva, New York, 14456-9753 United States ","Brewery, Bar",Geneva,New York,-76.9796533,42.8329939,"Geneva, New York",-76.985557,42.8679836
Galaxy Brewing Company,3.53,33.0,3.77,29.0,"41 Court St Binghamton, New York, 13901-3104 United States ","Brewery, Bar, Eatery",Binghamton,New York,-75.91364039999999,42.0990332,"Binghamton, New York",-75.91797380000001,42.09868669999999
Garvies Point Craft Brewery,NA,NA,3.92,8.0,"1 Garvies Point Rd Glen Cove, New York, 11542-2821 United States ",Brewery,Glen Cove,New York,-73.6419743,40.8602509,"Glen Cove, New York",-73.6337389,40.8623217
Gene McCarthy's Tavern / Old First Ward Brewing,4.38,9.0,3.79,11.0,"73 Hamburg St Buffalo, New York, 14204-2719 United States ","Brewery, Bar, Eatery",Buffalo,New York,-78.85957259999999,42.8658795,"Buffalo, New York",-78.8783689,42.88644679999999
Genesee Brew House,3.97,24.0,3.89,18.0,"25 Cataract St Rochester, New York, 14605 United States ","Brewery, Bar, Eatery",Rochester,New York,-77.61494400000001,43.163566,"Rochester, New York",-77.6109219,43.16103
Genesee Brewing Co. / Dundee Brewing Co.,NA,NA,3.25,55.0,"445 Saint Paul St. Rochester, New York, 14605 United States ",Brewery,Rochester,New York,-77.6152765,43.16423349999999,"Rochester, New York",-77.6109219,43.16103
Gentle Giant Brewing Company,NA,NA,NA,0.0,"7 N Main St Pearl River, New York, 10965 United States ","Brewery, Bar, Eatery",Pearl River,New York,-74.0216165,41.0593745,"Pearl River, New York",-74.0218063,41.0589855
Gilded Otter Brewing Company,3.78,74.0,3.6,28.0,"3 Main St New Paltz, New York, 12561 United States ","Brewery, Bar, Eatery",New Paltz,New York,-74.0895687,41.7469608,"New Paltz, New York",-74.0868095,41.7475933
Glass Factory Brew House,3.73,2.0,3.29,3.0,"4200 Route 14 S Geneva, New York, 14456 United States ","Brewery, Bar",Geneva,New York,-76.979812,42.829508,"Geneva, New York",-76.985557,42.8679836
Glenmere Brewing Company,NA,NA,NA,3.0,"55 Maple Ave Florida, New York, 10921 United States ",Brewery,Florida,New York,-74.3603268,41.3354212,"Florida, New York",-74.35682,41.3317606
Good Nature Farm Brewery & Tap Room,4.2,12.0,4.03,25.0,"8 Broad St Hamilton, New York, 13346 United States ","Brewery, Bar",Hamilton,New York,-75.544399,42.826438,"Hamilton, New York",-75.5446238,42.8270136
Gordon Biersch Brewery & Restaurant,3.77,5.0,3.7,64.0,"1 Walden Galleria Ste P102 Buffalo, New York, 14225-5408 United States ","Brewery, Bar, Eatery",Buffalo,New York,-78.7634399,42.9120261,"Buffalo, New York",-78.8783689,42.88644679999999
Gordon Biersch Brewery Restaurant,3.96,7.0,3.7,64.0,"304 Hiawatha Blvd W Syracuse, New York, 13290 United States ","Brewery, Bar, Eatery",Syracuse,New York,-76.16985919999999,43.06785259999999,"Syracuse, New York",-76.14742439999999,43.0481221
Great Adirondack Steak And Seafood Co.,3.77,34.0,3.83,18.0,"34 Main Street Lake Placid, New York, 12946 United States ","Brewery, Bar, Eatery",Lake Placid,New York,-73.9840428,44.2854201,"Lake Placid, New York",-73.9798713,44.2794911
Great Life Brewing Company,NA,NA,NA,4.0,"75 Clarendon Ave Ste 1 Kingston, New York, 12401-2149 United States ",Brewery,Kingston,New York,-73.997026,41.941246,"Kingston, New York",-73.9973608,41.9270367
Great South Bay Brewery,4.19,33.0,3.73,31.0,"25 Drexel DR Bay Shore, New York, 11706 United States ","Brewery, Bar",Bay Shore,New York,-73.26346699999999,40.7610955,"Bay Shore, New York",-73.2453946,40.7250986
Green Wolf Brewing Co.,NA,NA,NA,11.0,"315 Main St Middleburgh, New York, 12122-6522 United States ","Brewery, Bar",Middleburgh,New York,-74.335085,42.59796499999999,"Middleburgh, New York",-74.33291559999999,42.59868700000001
Greenpoint Beer & Ale Company,4.19,24.0,3.92,83.0,"7 N 15th St Brooklyn, New York, 11222-2838 United States ","Brewery, Bar, Eatery",Brooklyn,New York,-73.95706799999999,40.725131,"Brooklyn, New York",-73.9441579,40.6781784
Greenpoint Beerworks / Kelso of Brooklyn,3.81,1.0,3.72,54.0,"529 Waverly Ave Brooklyn, New York, 11238 United States ","Brewery, Bar",Brooklyn,New York,-73.9654159,40.6824127,"Brooklyn, New York",-73.9441579,40.6781784
Greenport Harbor Brewing Company,NA,NA,3.84,56.0,"234 Carpenter Street Greenport, New York, 11944 United States ",Brewery,Greenport,New York,-72.35865489999999,41.1036334,"Greenport, New York",-72.3592501,41.1034326
Grimm Artisanal Ales,NA,NA,4.2,51.0,"PO Box 150472 Brooklyn, New York, 11215 United States ",Brewery,Brooklyn,New York,-73.9800645,40.6681669,"Brooklyn, New York",-73.9441579,40.6781784
Grist Iron Brewing Company,3.54,9.0,3.88,14.0,"4880 NYS Route 414 Burdett, New York, 14818 United States ","Brewery, Bar, Eatery",Burdett,New York,-76.8634871,42.44000990000001,"Burdett, New York",-76.84884629999999,42.4200726
Gun Hill Brewing Company,4.34,29.0,3.85,33.0,"3227 Laconia Ave Bronx, New York, 10469-1403 United States ","Brewery, Bar",Bronx,New York,-73.855929,40.872112,"Bronx, New York",-73.86542949999999,40.8370495
Hamburg Brewing Company,3.79,8.0,3.73,19.0,"6553 Boston State Rd Hamburg, New York, 14075-6630 United States ","Brewery, Bar",Hamburg,New York,-78.8028954,42.7110117,"Hamburg, New York",-78.8294768,42.7158927
Hammo's Brewpub & Lodge,NA,NA,NA,0.0,"39 Goshen Rd Hensonville, New York, 12496 United States ","Brewery, Bar, Eatery",Hensonville,New York,-74.24140919999999,42.33151549999999,"Hensonville, New York",-74.21653069999999,42.2898074
Harlem Blue,NA,NA,NA,2.0,"2216 Frederick Douglass Blvd Harlem, New York, 10026-1121 United States ",Brewery,Harlem,New York,-73.953513,40.8066272,"Harlem, New York",-73.9464769,40.8115504
Harlem Brewing Company,NA,NA,3.63,5.0,"360 W. 125th Street New York, New York, 10027 United States ",Brewery,New York,New York,-73.95322100000001,40.8108064,"New York, New York",-74.0059413,40.7127837
Heartland Black + Gold,4.09,3.0,NA,10.0,"3 Broad St Port Chester, New York, 10573-4101 United States ","Brewery, Bar, Eatery",Port Chester,New York,-73.66382109999999,41.0019635,"Port Chester, New York",-73.66568339999999,41.0017643
Heavily Brewing Company,3.94,1.0,NA,4.0,"2471 Hayes Rd Montour Falls, New York, 14865-9756 United States ","Brewery, Bar",Montour Falls,New York,-76.82739819999999,42.3541654,"Montour Falls, New York",-76.8452351,42.3472958
Helderberg Mountain Brewing Company / Maple Inn,NA,NA,NA,4.0,"141 Warners Lake Rd East Berne, New York, 12059-2020 United States ","Brewery, Bar, Eatery",East Berne,New York,-74.07725599999999,42.630165,"East Berne, New York",-74.0745747,42.6164662
Henneberg Brewing Co.,NA,NA,3.87,6.0,"2001 Delphi Rd New Woodstock, New York, 13122-9768 United States",Brewery,New Woodstock,New York,-75.8628356,42.86978939999999,"New Woodstock, New York",-75.8543988,42.8482691
Honey Hollow Brewing Co.,NA,NA,NA,10.0,"376 E Honey Hollow Rd Earlton, New York, 12058-3403 United States ",Brewery,Earlton,New York,-73.92656,42.40450500000001,"Earlton, New York",-73.90068409999999,42.3556399
Hopshire Farm & Brewery,3.91,11.0,3.75,23.0,"1771 Dryden Rd Freeville, New York, 13068-5618 United States ","Brewery, Bar",Freeville,New York,-76.3681332,42.4806535,"Freeville, New York",-76.3466014,42.5139608
Horseheads Brewing Inc.,NA,NA,3.85,27.0,"250 Old Ithaca Rd. Horseheads, New York, 14845 United States ","Brewery, Bar",Horseheads,New York,-76.8121348,42.1833111,"Horseheads, New York",-76.8205119,42.167019
Hudson Ale Works,NA,NA,NA,4.0,"17 Milton Ave Highland, New York, 12528 United States ",Brewery,Highland,New York,-73.9639363,41.71783749999999,"Highland, New York",-73.9601382,41.7209267
Hudson Brewing Company,4.22,1.0,NA,9.0,"60 S Front St Hudson, New York, 12534 United States ","Brewery, Bar",Hudson,New York,-73.7972379,42.253763,"Hudson, New York",-73.790959,42.2528649
Hudson Valley Brewery,NA,NA,4.25,5.0,"7 E Main St Beacon, New York, 12508-3301 United States",Brewery,Beacon,New York,-73.962829,41.501771,"Beacon, New York",-73.9695832,41.5048158
Hyde Park Brewing Company,3.54,38.0,3.59,10.0,"514 Albany Post Rd Hyde Park, New York, 12538 United States ","Brewery, Bar, Eatery",Hyde Park,New York,-73.9303967,41.7606274,"Hyde Park, New York",-73.9015246,41.7667602
Iconyc Brewing Company,NA,NA,4.12,6.0,"3718 Northern Blvd Long Island City Queens, New York, 11101-1631 United States ",Brewery,Queens,New York,-73.9254413,40.751985,"Queens, New York",-73.7948516,40.7282239
Indian Ladder Farmstead Cidery & Brewery (ILFCB),NA,NA,NA,3.0,"342 Altamont Rd Altamont, New York, 12009 United States ","Brewery, Bar",Altamont,New York,-73.9734896,42.6554108,"Altamont, New York",-74.0337382,42.7006324
Industrial Arts Brewing Company,4.09,1.0,4.26,5.0,"55 W Railroad Ave Garnerville, New York, 10923-1261 United States","Brewery, Bar",Garnerville,New York,-73.9899501,41.2089024,"Garnerville, New York",-73.99730890000001,41.2074444
Interboro Brewing,NA,NA,4.26,8.0,"942 Grand St Brooklyn, New York, 11211-2707 United States",Brewery,Brooklyn,New York,-73.936947,40.7125862,"Brooklyn, New York",-73.9441579,40.6781784
Iron Flamingo Brewery,3.71,2.0,3.61,7.0,"196 Baker St Corning, New York, 14830-2074 United States ","Brewery, Bar",Corning,New York,-77.05637899999999,42.155135,"Corning, New York",-77.05469029999999,42.1428521
Ithaca Beer Company,4.19,82.0,3.79,86.0,"122 Ithaca Beer Dr Ithaca, New York, 14850-8813 United States ","Brewery, Bar, Eatery",Ithaca,New York,-76.53506399999999,42.41655009999999,"Ithaca, New York",-76.5018807,42.4439614
John Harvard’s Brewery & Ale House,3.53,27.0,3.57,180.0,"2093 Smithhaven Plaza Lake Grove, New York, 11755 United States ","Brewery, Eatery",Lake Grove,New York,-73.1284603,40.8699991,"Lake Grove, New York",-73.1151102,40.8528761
Keegan Ales,3.9,42.0,3.81,15.0,"20 St. James Street Kingston, New York, 12401 United States ","Brewery, Bar, Eatery",Kingston,New York,-74.0118701,41.9315036,"Kingston, New York",-73.9973608,41.9270367
Keg & Lantern Brewing Co,4.02,17.0,3.98,67.0,"95 Nassau Ave Brooklyn, New York, 11222-3080 United States ","Brewery, Bar, Eatery",Brooklyn,New York,-73.95040639999999,40.7240314,"Brooklyn, New York",-73.9441579,40.6781784
Keuka Brewing Company,3.97,2.0,3.65,22.0,"8572 Briglin Road Hammondsport, New York, 14840 United States ","Brewery, Bar",Hammondsport,New York,-77.19103299999999,42.485417,"Hammondsport, New York",-77.22358729999999,42.4078495
Kings County Brewers Collective (KCBC),4.0,1.0,3.92,10.0,"381 Troutman St Brooklyn, New York, 11237 United States","Brewery, Bar",Brooklyn,New York,-73.9236918,40.7060657,"Brooklyn, New York",-73.9441579,40.6781784
Knucklehead Craft Brewing,4.17,6.0,3.97,9.0,"426 Ridge Rd Webster, New York, 14580-1793 United States","Brewery, Bar",Webster,New York,-77.5122017,43.2060144,"Webster, New York",-77.4299939,43.2122851
La Birreria,3.97,44.0,3.74,18.0,"200 5th Avenue On The Roof Of Eataly New York, New York, 10010 United States ","Brewery, Bar, Eatery",New York,New York,-73.98153370000001,40.7388319,"New York, New York",-74.0059413,40.7127837
Lake Drum Brewing,3.94,4.0,3.78,8.0,"16 E Castle St Geneva, New York, 14456 United States ","Brewery, Bar",Geneva,New York,-76.98096799999999,42.86774,"Geneva, New York",-76.985557,42.8679836
Lake Placid Craft Brewing Company,3.92,55.0,3.78,45.0,"813 Mirror Lake Drive Lake Placid, New York, 12946 United States ","Brewery, Bar, Eatery",Lake Placid,New York,-73.981262,44.282926,"Lake Placid, New York",-73.9798713,44.2794911
Last Stop Brewing Company,NA,NA,NA,3.0,"35 Patrick Lane Poughkeepsie, New York, 12603 United States ",Brewery,Poughkeepsie,New York,-73.86250799999999,41.681657,"Poughkeepsie, New York",-73.9209701,41.7003713
Legends Brewpub and Wine Bar,3.59,3.0,NA,12.0,"411 Route 3 Plattsburgh, New York, 12901 United States ","Brewery, Bar, Eatery",Plattsburgh,New York,-73.48878309999999,44.6958628,"Plattsburgh, New York",-73.4529124,44.6994873
LIC Beer Project,4.41,13.0,4.2,33.0,"39-28 23rd St Queens, New York, 11101-4817 United States ","Brewery, Bar",Queens,New York,-73.939375,40.7548729,"Queens, New York",-73.7948516,40.7282239
Lithology Brewing Co.,NA,NA,3.56,13.0,"976 Woodoak Dr Baldwin, New York, 11510-5022 United States ",Brewery,Baldwin,New York,-73.600546,40.629064,"Baldwin, New York",-73.6119129,40.6686336
Livingoods Restaurant & Brewery,4.47,2.0,NA,8.0,"697 Bear Swamp Rd Peru, New York, 12972-4803 United States ","Brewery, Bar, Eatery",Peru,New York,-73.51157100000002,44.576079,"Peru, New York",-73.5268028,44.578379
Local 315 Brewing Company,4.43,2.0,NA,9.0,"3202 Warners Rd Warners, New York, 13164-9786 United States ","Brewery, Bar",Warners,New York,-76.2865212,43.0794384,"Warners, New York",-76.32909769999999,43.0853445
Lock 32 Brewing Company,4.07,5.0,3.45,13.0,"10 Schoen Place Pittsford, New York, 14534 United States ","Brewery, Bar",Pittsford,New York,-77.5128735,43.0918741,"Pittsford, New York",-77.5149969,43.0906186
Long Beard Brewing Co.,NA,NA,NA,2.0,"24 E 2nd St Riverhead, New York, 11901-4615 United States ","Brewery, Bar",Riverhead,New York,-72.662217,40.919326,"Riverhead, New York",-72.66204019999999,40.9170435
Long Ireland Beer Company,4.26,10.0,3.64,31.0,"817 Pulaski Street Riverhead, New York, 11901 United States ","Brewery, Bar",Riverhead,New York,-72.67463099999999,40.919804,"Riverhead, New York",-72.66204019999999,40.9170435
Lost Kingdom Brewery & Firehouse Distillery,3.42,2.0,NA,0.0,"7160 Main St Ovid, New York, 14521 United States ","Brewery, Bar",Ovid,New York,-76.8226537,42.6775654,"Ovid, New York",-76.8230111,42.6764593
Lost Tribes Brew,NA,NA,NA,3.0,"Flushing (Queens), New York, United States ",Brewery,Flushing (Queens),New York,-73.833079,40.7674987,"Flushing (Queens), New York",-73.833079,40.7674987
Lucky Hare Brewing Company,NA,NA,3.96,7.0,"6085 Beckhorn Rd Hector, New York, 14841-9616 United States ",Brewery,Hector,New York,-76.8749069,42.528259,"Hector, New York",-76.8724586,42.5006271
Lunkenheimer Craft Brewing Co.,4.49,3.0,NA,11.0,"8920 N Seneca St Weedsport, New York, 13166-8566 United States ","Brewery, Bar",Weedsport,New York,-76.5627671,43.0492537,"Weedsport, New York",-76.5627197,43.048677
LyonSmith Brewing Company,NA,NA,3.88,12.0,"138 Water St Penn Yan, New York, 14527-1651 United States",Brewery,Penn Yan,New York,-77.05472449999999,42.6590515,"Penn Yan, New York",-77.0538577,42.6609026
Market Street Brewing Co. and Restaurant,3.66,23.0,3.41,10.0,"63-65 West Market St. Corning, New York, 14830 United States ","Brewery, Bar, Eatery",Corning,New York,-77.05719959999999,42.1439008,"Corning, New York",-77.05469029999999,42.1428521
Matt Brewing Company / Saranac Brewery,4.25,16.0,3.52,110.0,"811 Edward St, Brewhouse Square Utica, New York, 13502 United States ","Brewery, Bar",Utica,New York,-75.232664,43.100903,"Utica, New York",-75.232664,43.100903
McCoy Brewery & Co,NA,NA,2.9,3.0,"Rochester, New York, 14624, United States ",Brewery,Rochester,New York,-77.7337628,43.1206737,"Rochester, New York",-77.6109219,43.16103
Mean Max Brew Works,3.86,6.0,3.78,23.0,"193 Glen St Glens Falls, New York, 12801-3506 United States ","Brewery, Bar",Glens Falls,New York,-73.64448999999999,43.310148,"Glens Falls, New York",-73.6440058,43.3095164
Mendocino Brewing Company,NA,NA,3.58,47.0,"131 Excelsior Avenue Saratoga Springs, New York, 12866 United States ",Brewery,Saratoga Springs,New York,-73.76799270000001,43.0909996,"Saratoga Springs, New York",-73.7845651,43.0831301
"Middle Ages Brewing Co., Ltd.",3.9,5.0,3.8,42.0,"120 Wilkinson Street Syracuse, New York, 13204 United States ","Brewery, Bar",Syracuse,New York,-76.1616174,43.0512686,"Syracuse, New York",-76.14742439999999,43.0481221
Miles Craft Ales,2.03,1.0,NA,1.0,"168 Randall Crossing Rd Himrod, New York, 14842-9715 United States ","Brewery, Bar, Eatery",Himrod,New York,-76.9220574,42.617035,"Himrod, New York",-76.9549633,42.5897928
Mill House Brewing Company,4.2,47.0,3.86,20.0,"289 Mill St Poughkeepsie, New York, 12601-3111 United States ","Brewery, Bar, Eatery",Poughkeepsie,New York,-73.9263936,41.7051637,"Poughkeepsie, New York",-73.9209701,41.7003713
Mississippi Brewing Co.,NA,NA,3.25,2.0,"Utica, New York, 11042, United States",Brewery,Utica,New York,-75.1851994,43.1094808,"Utica, New York",-75.232664,43.100903
Montauk Brewing Company,3.99,13.0,3.7,18.0,"62 South Erie Avenue Montauk, New York, 11954 United States ","Brewery, Bar",Montauk,New York,-71.94400019999999,41.0366231,"Montauk, New York",-71.9545146,41.0359353
Moustache Brewing Co.,4.08,7.0,3.86,37.0,"400 Hallett Ave Ste A Riverhead, New York, 11901-3076 United States ","Brewery, Bar",Riverhead,New York,-72.6678694,40.9205597,"Riverhead, New York",-72.66204019999999,40.9170435
Nail Creek Pub & Brewery,3.68,18.0,NA,1.0,"720 Varick St Utica, New York, 13502 United States ","Brewery, Bar, Eatery",Utica,New York,-75.2435923,43.1035043,"Utica, New York",-75.232664,43.100903
Naked Dove Brewing Company,NA,NA,3.95,22.0,"4048 State Route 5 & 20 Canandaigua, New York, 14424 United States ",Brewery,Canandaigua,New York,-77.22526529999999,42.8668567,"Canandaigua, New York",-77.2816984,42.887535
Nedloh Brewing Company,3.86,7.0,3.71,14.0,"6621 State Route 5 and 20 East Bloomfield, New York, 14469-9208 United States ","Brewery, Bar",East Bloomfield,New York,-77.4284241,42.8935373,"East Bloomfield, New York",-77.43522089999999,42.8951611
New Buffalo Brewing Co.,NA,NA,3.35,3.0,"P.O. Box 171 Akron, New York, 14001 United States",Brewery,Akron,New York,-78.4953015,43.0208924,"Akron, New York",-78.4953015,43.0208924
New Paltz Brewing Company (Pfälzerbräu),NA,NA,NA,6.0,"7174 Route 209 PO Box 1134 Wawarsing, New York, 12561-7134 United States ",Brewery,Wawarsing,New York,-74.35835639999999,41.7579532,"Wawarsing, New York",-74.35733429999999,41.7588883
New World Beverages,NA,NA,NA,1.0,"47-32 32nd Pl, Ste 2014 Queens, New York, 11001 United States ",Brewery,Queens,New York,-73.9337693,40.741369,"Queens, New York",-73.7948516,40.7282239
New York Beer Project,3.96,5.0,3.9,7.0,"6933 S Transit Rd Lockport, New York, 14094-6330 United States ","Brewery, Bar, Eatery",Lockport,New York,-78.69687780000001,43.09033429999999,"Lockport, New York",-78.6903098,43.1706128
Newburgh Brewing Company,4.2,39.0,3.93,51.0,"88 South Colden Street Newburgh, New York, 12550 United States ","Brewery, Bar, Eatery",Newburgh,New York,-74.0079658,41.4973091,"Newburgh, New York",-74.0104178,41.5034271
Noble Shepherd Craft Brewery,4.25,1.0,NA,2.0,"7853 State Route 20A Bloomfield, New York, 14469-9659 United States ","Brewery, Bar",Bloomfield,New York,-77.4640467,42.81125530000001,"Bloomfield, New York",-77.4214278,42.8972624
North River Hops and Brewing,4.05,8.0,3.78,40.0,"1571 Route 9 Wappingers Falls, New York, 12590-2827 United States ","Brewery, Bar",Wappingers Falls,New York,-73.91145159999999,41.5961447,"Wappingers Falls, New York",-73.91096999999999,41.5964825
Old Klaverack Brewery,NA,NA,NA,8.0,"150 Thielman Rd Hudson, New York, 12534-3716 United States","Brewery, Bar",Hudson,New York,-73.68377,42.222281,"Hudson, New York",-73.790959,42.2528649
Other Half Brewing Co.,4.38,181.0,4.17,128.0,"195 Centre St Brooklyn, New York, 11231-3907 United States ","Brewery, Bar",Brooklyn,New York,-73.9991345,40.6738126,"Brooklyn, New York",-73.9441579,40.6781784
Oval Craft Brewing,3.66,1.0,NA,3.0,"111 Ohio Ave Plattsburgh, New York, 12903 United States ","Brewery, Bar",Plattsburgh,New York,-73.4473965,44.6831915,"Plattsburgh, New York",-73.4529124,44.6994873
Oyster Bay Brewing Co.,3.83,11.0,3.71,27.0,"76 South St Oyster Bay, New York, 11771-1594 United States ","Brewery, Bar",Oyster Bay,New York,-73.5304076,40.8731491,"Oyster Bay, New York",-73.5320685,40.8656543
Pan-American Grill & Brewery,3.78,9.0,3.81,11.0,"391 Washington St Buffalo, New York, 14203-2108 United States ","Brewery, Bar, Eatery",Buffalo,New York,-78.87289059999999,42.8849055,"Buffalo, New York",-78.8783689,42.88644679999999
Paradox Brewery,4.05,8.0,3.7,25.0,"154 US Route 9 Schroon Lake, New York, 12870-3100 United States ","Brewery, Bar",Schroon Lake,New York,-73.793385,43.781173,"Schroon Lake, New York",-73.7618292,43.8383684
Paulaner Brauhaus & Restaurant,3.97,10.0,3.63,5.0,"265 Bowery New York, New York, 10002-1201 United States ","Brewery, Bar, Eatery",New York,New York,-73.9924712,40.7234093,"New York, New York",-74.0059413,40.7127837
Pearl Street Grill And Brewery,3.71,81.0,3.53,21.0,"76 Pearl Street Buffalo, New York, 14202 United States ","Brewery, Eatery",Buffalo,New York,-78.8773423,42.8810911,"Buffalo, New York",-78.8783689,42.88644679999999
Peekskill Brewery,4.12,111.0,4.1,48.0,"47-53 S Water St Peekskill, New York, 10566-2035 United States ","Brewery, Bar, Eatery",Peekskill,New York,-73.9292313,41.28673819999999,"Peekskill, New York",-73.9204158,41.2900939
Pine Island Brewing Company,3.79,3.0,4.06,13.0,"682 County Rd 1 Pine Island, New York, 10969 United States ","Brewery, Bar",Pine Island,New York,-74.4659533,41.2975183,"Pine Island, New York",-74.459324,41.2978722
Plan Bee Farm Brewery,NA,NA,3.99,31.0,"115 Underhill Rd Poughkeepsie, New York, 12603 United States ",Brewery,Poughkeepsie,New York,-73.88568099999999,41.718716,"Poughkeepsie, New York",-73.9209701,41.7003713
Plattsburgh Brewing Company,4.2,6.0,3.81,14.0,"411 Route 3 Plattsburgh, New York, 12901-6520 United States ","Brewery, Bar, Eatery",Plattsburgh,New York,-73.48878309999999,44.6958628,"Plattsburgh, New York",-73.4529124,44.6994873
Po'Boy Brewery,NA,NA,NA,5.0,"211 Main St Ste A Farmingdale, New York, 11735-2675 United States",Brewery,Farmingdale,New York,-73.4458301,40.734091,"Farmingdale, New York",-73.4454009,40.7325997
Port Jeff Brewing Company,4.14,7.0,3.63,38.0,"22 Mill Creek Road Port Jefferson, New York, 11777 United States ","Brewery, Bar",Port Jefferson,New York,-73.06925609999999,40.9453131,"Port Jefferson, New York",-73.0692732,40.9464875
Prison City Pub & Brewery,3.77,15.0,4.04,47.0,"28 State St Auburn, New York, 13021 United States ","Brewery, Bar, Eatery",Auburn,New York,-76.5684366,42.9318233,"Auburn, New York",-76.5660529,42.9317335
Pull Brewing Co.,NA,NA,NA,1.0,"317 Springtown Rd New Paltz, New York, 12561 United States ","Brewery, Bar",New Paltz,New York,-74.0877521,41.7898089,"New Paltz, New York",-74.0868095,41.7475933
Queens Brewery,NA,NA,3.61,3.0,"1539 Covert St Ridgewood Queens, New York, 11385 United States",Brewery,Queens,New York,-73.90389530000002,40.69503,"Queens, New York",-73.7948516,40.7282239
R.S. Taylor & Sons Brewing,4.78,2.0,4.1,7.0,"3602 County Route 30 Salem, New York, 12865 United States ","Brewery, Bar, Eatery",Salem,New York,-73.3783775,43.2576311,"Salem, New York",-73.3276101,43.1722983
Radiant Pig Craft Beers,NA,NA,3.81,5.0,"122 W 27th St Ste 1022 New York, New York, 10001-6227 United States",Brewery,New York,New York,-73.992305,40.7457494,"New York, New York",-74.0059413,40.7127837
Railhead Brewing Co.,4.05,5.0,3.54,8.0,"40 Park Dr Hornell, New York, 14843-2213 United States ","Brewery, Bar, Eatery",Hornell,New York,-77.654895,42.315999,"Hornell, New York",-77.6611025,42.3278477
Raquette River Brewing,NA,NA,3.25,8.0,"11 Balsam St #2 Tupper Lake, New York, 12986 United States ",Brewery,Tupper Lake,New York,-73.98713699999999,44.268303,"Tupper Lake, New York",-74.4640575,44.2239488
Rare Form Brewing Company,3.98,12.0,3.68,33.0,"90 Congress St Troy, New York, 12180-4123 United States ","Brewery, Bar",Troy,New York,-73.690015,42.728499,"Troy, New York",-73.69178509999999,42.7284117
Resurgence Brewing Company,3.72,31.0,4.0,56.0,"1250 Niagara St. Buffalo, New York, 14213 United States ","Brewery, Bar, Eatery",Buffalo,New York,-78.89954689999999,42.91833099999999,"Buffalo, New York",-78.8783689,42.88644679999999
Ringside Brewing Co.,NA,NA,2.93,1.0,"131 Excelsior Ave Saratoga Springs, New York, 12866-8545 United States",Brewery,Saratoga Springs,New York,-73.76799270000001,43.0909996,"Saratoga Springs, New York",-73.7845651,43.0831301
Rip Van Winkle Brewing Co. / Angela's Italian Bistro,3.94,1.0,NA,4.0,"4545 NY-32 Catskill, New York, 12414 United States ","Brewery, Bar, Eatery",Catskill,New York,-73.98652799999999,42.185396,"Catskill, New York",-73.8645734,42.2173102
Roc Brewing Company,4.06,17.0,3.7,32.0,"56 S Union St Rochester, New York, 14607 United States ","Brewery, Bar, Eatery",Rochester,New York,-77.5975522,43.1533777,"Rochester, New York",-77.6109219,43.16103
Rock Stream Vineyards & Brewery,NA,NA,NA,0.0,"162 Fir Tree Point Rd Rock Stream, New York, 14878-9700 United States ",Brewery,Rock Stream,New York,-76.919089,42.472324,"Rock Stream, New York",-76.9274616,42.4711829
Rockaway Brewing Company,4.17,11.0,3.83,48.0,"46-01 5th St Queens, New York, 11101-5311 United States","Brewery, Bar",Queens,New York,-73.9549664,40.7470009,"Queens, New York",-73.7948516,40.7282239
Rocky Point Artisan Brewers,NA,NA,3.9,21.0,"56 Hallock Landing Rd Rocky Point, New York, 11778-9432 United States ",Brewery,Rocky Point,New York,-72.943248,40.9492509,"Rocky Point, New York",-72.9253805,40.9525987
Rogers Beer Company,NA,NA,3.49,6.0,"Rochester, New York, United States ",Brewery,Rochester,New York,-77.6109219,43.16103,"Rochester, New York",-77.6109219,43.16103
Rogue's Harbor Brewing,3.52,3.0,3.68,8.0,"2079 East Shore Drive PO Box 97 Lansing, New York, 14882 United States ","Brewery, Bar, Eatery",Lansing,New York,-76.5056212,42.5377252,"Lansing, New York",-76.4799397,42.4842392
Rohrbach Brewing Company (Brewery),NA,NA,NA,1.0,"97 Railroad St. Rochester, New York, 14609 United States ",Brewery,Rochester,New York,-77.586956,43.163307,"Rochester, New York",-77.6109219,43.16103
Rohrbach Brewing Company (Brewpub),3.98,65.0,3.65,52.0,"3859 Buffalo Road Rochester, New York, 14624 United States ","Brewery, Bar, Eatery",Rochester,New York,-77.7616446,43.1372022,"Rochester, New York",-77.6109219,43.16103
Rooster Fish Brewing Co.,3.85,51.0,3.73,20.0,"111 N Franklin St Watkins Glen, New York, 14891 United States ","Brewery, Bar, Eatery",Watkins Glen,New York,-76.874933,42.38239799999999,"Watkins Glen, New York",-76.8732921,42.3806287
Root + Branch Brewing,NA,NA,NA,0.0,"3562 Lufberry Ave Wantagh, New York, 11793 United States",Brewery,Wantagh,New York,-73.501524,40.688927,"Wantagh, New York",-73.5101258,40.6837121
Roots Brewing Company,4.83,4.0,4.37,14.0,"175 Main St Oneonta, New York, 13820-2501 United States ","Brewery, Bar, Eatery",Oneonta,New York,-75.06254369999999,42.453703,"Oneonta, New York",-75.0637746,42.4528571
Roscoe Beer Co.,4.17,3.0,3.62,12.0,"145 Rockland Rd PO Box 153 Roscoe, New York, 12776-0153 United States ","Brewery, Bar",Roscoe,New York,-74.913107,41.94621799999999,"Roscoe, New York",-74.9134961,41.9331441
Roscoe's Hop House,NA,NA,3.08,5.0,"n/a Rochester, New York United States",Brewery,Rochester,New York,-77.6109219,43.16103,"Rochester, New York",-77.6109219,43.16103
Rough Cut Brewing Co.,4.03,3.0,3.77,10.0,"5945 Route 44 55 Kerhonkson, New York, 12446-3451 United States ","Brewery, Bar, Eatery",Kerhonkson,New York,-74.2848882,41.7596674,"Kerhonkson, New York",-74.2982059,41.7748155
Ruckus Brewing,NA,NA,3.7,5.0,"261 W 35th Street New York, New York, 10001 United States ",Brewery,New York,New York,-73.9923503,40.7528298,"New York, New York",-74.0059413,40.7127837
Rushing Duck Brewing Company,4.56,24.0,4.06,33.0,"1 Battiato Lane Chester, New York, 10918 United States ","Brewery, Bar",Chester,New York,-74.2696167,41.3622111,"Chester, New York",-74.27126129999999,41.3625937
Rusty Nickel Brewing Co,3.68,2.0,3.41,17.0,"4350 Seneca St West Seneca, New York, 14225 United States","Brewery, Bar",West Seneca,New York,-78.74267520000001,42.83338,"West Seneca, New York",-78.7538895,42.8358977
S&S Farm Brewery,NA,NA,NA,1.0,"274 Middle Rd Nassau, New York, 12123 United States ",Brewery,Nassau,New York,-73.5728089,42.487935,"Nassau, New York",-73.61011590000001,42.51591450000001
Sackets Harbor Brewing Co.,3.81,20.0,3.59,13.0,"212 West Main Street Sackets Harbor, New York, 13685 United States ","Brewery, Eatery",Sackets Harbor,New York,-76.1206732,43.9479771,"Sackets Harbor, New York",-76.1190929,43.9461707
Saint James Brewery,NA,NA,4.27,7.0,"1255 Lakeland Ave Bohemia, New York, 11716-3302 United States ",Brewery,Bohemia,New York,-73.106003,40.774044,"Bohemia, New York",-73.1151117,40.7692649
Sand City Brewing Co.,4.19,16.0,4.12,28.0,"60 Main St Northport, New York, 11768-1722 United States ","Brewery, Bar, Eatery",Northport,New York,-73.35101220000001,40.9002221,"Northport, New York",-73.3431727,40.9009313
Secret Engine Brewing,NA,NA,NA,6.0,"Brooklyn, New York, 11201, United States",Brewery,Brooklyn,New York,-73.9859414,40.6986772,"Brooklyn, New York",-73.9441579,40.6781784
Seneca Lodge Craft Brewing,3.81,9.0,3.91,11.0,"Walnut Road At Route 329 Watkins Glen, New York, 14891 United States ","Brewery, Bar, Eatery",Watkins Glen,New York,-76.87096059999999,42.3698318,"Watkins Glen, New York",-76.8732921,42.3806287
Seneca Street Brew Pub,3.59,1.0,NA,0.0,"315 E Seneca St Manlius, New York, 13104 United States ","Brewery, Bar",Manlius,New York,-75.97592519999999,43.0022821,"Manlius, New York",-75.9768632,43.0020107
Shelter Island Craft Brewery,NA,NA,NA,2.0,"55 N Ferry Rd Shelter Island, New York, 11964 United States ",Brewery,Shelter Island,New York,-72.3392473,41.071465,"Shelter Island, New York",-72.3386939,41.0681549
Shmaltz Brewing Company,NA,NA,3.76,31.0,"6 Fairchild Sq Clifton Park, New York, 12065-1254 United States ",Brewery,Clifton Park,New York,-73.7928352,42.9014992,"Clifton Park, New York",-73.8183804,42.844668
Shrewd Fox Brewery,NA,NA,NA,2.0,"552 State Route 55 Eldred, New York, 12732-5200 United States ","Brewery, Bar",Eldred,New York,-74.885339,41.5258792,"Eldred, New York",-74.88443269999999,41.5270271
SingleCut Beersmiths,4.36,84.0,4.1,67.0,"19-33 37th St Astoria Queens, New York, 11105-1118 United States ","Brewery, Bar",Queens,New York,-73.901833,40.7784863,"Queens, New York",-73.7948516,40.7282239
Sixpoint Brewery,NA,NA,3.96,76.0,"40 Van Dyke St Brooklyn, New York, 11231 United States ",Brewery,Brooklyn,New York,-74.0119553,40.6739685,"Brooklyn, New York",-73.9441579,40.6781784
Skewed Brewing,3.36,13.0,3.51,14.0,"21182 Salmon Run Mall Loop W Unit B219 Watertown, New York, 13601-2244 United States ","Brewery, Bar, Eatery",Watertown,New York,-75.951402,43.97692,"Watertown, New York",-75.91075649999999,43.9747838
Sloop Brewing,4.26,7.0,4.03,24.0,"1061 County Route 19 Elizaville, New York, 12523 United States","Brewery, Bar, Eatery",Elizaville,New York,-73.7953438,42.0595515,"Elizaville, New York",-73.7907261,42.0497403
Smart Beer Company,NA,NA,NA,2.0,"PO Box 430 New Paltz, New York, 12561 United States",Brewery,New Paltz,New York,-74.0868095,41.7475933,"New Paltz, New York",-74.0868095,41.7475933
Southampton Publick House,4.28,79.0,3.93,39.0,"40 Bowden Square Southampton, New York, 11968 United States ","Brewery, Bar, Eatery",Southampton,New York,-72.39266119999999,40.8902009,"Southampton, New York",-72.3895296,40.884267
Southern Tier Brewing Company,4.2,227.0,3.91,49.0,"2072 Stoneman Circle Lakewood, New York, 14750 United States ","Brewery, Bar, Eatery",Lakewood,New York,-79.3512523,42.088054,"Lakewood, New York",-79.3331041,42.1042241
Spider Bite Beer Company,3.94,1.0,3.8,24.0,"920 Lincoln Ave Suite 5 Holbrook, New York, 11741 United States ","Brewery, Bar",Holbrook,New York,-73.0845374,40.7727191,"Holbrook, New York",-73.0784429,40.81232050000001
Splitrock Brewing Co.,3.7,2.0,NA,2.0,"155 N Main St Elmira, New York, 14901 United States ","Brewery, Bar, Eatery",Elmira,New York,-76.8085536,42.0883718,"Elmira, New York",-76.8077338,42.0897965
SquareHead Brewing Company,NA,NA,NA,25.0,"405 High St Ste 1 Holbrook, New York, 11741-5317 United States ",Brewery,Holbrook,New York,-73.07265840000001,40.7796216,"Holbrook, New York",-73.0784429,40.81232050000001
St. Lawrence Brewing Company,4.2,2.0,3.03,5.0,"19 Commerce Ln Ste 4 Canton, New York, 13617-3760 United States ","Brewery, Bar",Canton,New York,-75.1825179,44.5902471,"Canton, New York",-75.1690942,44.5956163
Starkey's Lookout,2.66,11.0,3.62,11.0,"5428 Rt. 14 Dundee, New York, 14837 United States ","Brewery, Bar, Eatery",Dundee,New York,-76.9244253,42.50411889999999,"Dundee, New York",-76.976631,42.5234043
Staten Island Beer Company,NA,NA,NA,1.0,"794 Curtis Ave Staten Island, New York, 10310-2611 United States ",Brewery,Staten Island,New York,-74.123705,40.624367,"Staten Island, New York",-74.1502007,40.5795317
Steadfast Beer Co.,NA,NA,3.43,4.0,"90 State Street, Floor 7, Suite 9 Albany, New York, 12207 United States ",Brewery,Albany,New York,-73.7532679,42.6496491,"Albany, New York",-73.7562317,42.6525793
Steuben Brewing Company,4.1,7.0,3.28,16.0,"10286 Judson Rd Hammondsport, New York, 14840-9668 United States ","Brewery, Bar",Hammondsport,New York,-77.18794,42.5008274,"Hammondsport, New York",-77.22358729999999,42.4078495
Stoneyard Brewing Company,4.38,4.0,4.21,35.0,"1 Main St. Brockport, New York, 14420 United States ","Brewery, Bar, Eatery",Brockport,New York,-77.9379642,43.2163775,"Brockport, New York",-77.9391797,43.2136713
Stout Beard Brewing,NA,NA,NA,5.0,"1153 W Fayette St, Ste 102 Syracuse, New York, 13204 United States ",Brewery,Syracuse,New York,-76.1731527,43.0462302,"Syracuse, New York",-76.14742439999999,43.0481221
Strong Rope Brewery,3.98,6.0,4.01,67.0,"574A President St Brooklyn, New York, 11215 United States ","Brewery, Bar",Brooklyn,New York,-73.9841685,40.6767735,"Brooklyn, New York",-73.9441579,40.6781784
Suarez Family Brewery,4.27,7.0,4.33,18.0,"2278 Route 9 Hudson, New York, 12534-4701 United States","Brewery, Bar",Hudson,New York,-73.7823248,42.247518,"Hudson, New York",-73.790959,42.2528649
Swiftwater Brewing Company,4.27,16.0,3.92,77.0,"378 Mount Hope Ave Rochester, New York, 14620-1250 United States ","Brewery, Bar, Eatery",Rochester,New York,-77.6119398,43.1423543,"Rochester, New York",-77.6109219,43.16103
Syracuse Suds Factory,2.62,30.0,3.26,4.0,"320 S. Clinton Street Syracuse, New York, 13202 United States ","Brewery, Bar, Eatery",Syracuse,New York,-76.1538678,43.0481019,"Syracuse, New York",-76.14742439999999,43.0481221
The Bee Hive Brew Pub,4.22,5.0,NA,2.0,"20 Pleasant St Canandaigua, New York, 14424-2047 United States ","Brewery, Bar, Eatery",Canandaigua,New York,-77.278876,42.888371,"Canandaigua, New York",-77.2816984,42.887535
The Beer Diviner,4.53,1.0,3.7,8.0,"241 Bly Hollow Rd Cherry Plain, New York, 12040 United States ","Brewery, Bar",Cherry Plain,New York,-73.36719810000001,42.6250963,"Cherry Plain, New York",-73.35816480000001,42.6292473
The Blind Bat Brewery LLC,NA,NA,3.59,28.0,"420 Harrison Drive Centerport, New York, 11721 United States ",Brewery,Centerport,New York,-73.381098,40.89588,"Centerport, New York",-73.3678388,40.8991963
The Brewers Collective,NA,NA,NA,4.0,"211 Main St Ste A Farmingdale, New York, 11735-2675 United States ",Brewery,Farmingdale,New York,-73.4458301,40.734091,"Farmingdale, New York",-73.4454009,40.7325997
The Brewery Of Broken Dreams,3.39,2.0,3.97,7.0,"8319 Pleasant Valley Rd Hammondsport, New York, 14840 United States ","Brewery, Bar",Hammondsport,New York,-77.244829,42.405211,"Hammondsport, New York",-77.22358729999999,42.4078495
The Bronx Brewery,4.1,5.0,3.84,26.0,"856 E 136th St Bronx, New York, 10454 United States ","Brewery, Bar",Bronx,New York,-73.91060999999999,40.8018969,"Bronx, New York",-73.86542949999999,40.8370495
The Defiant Brewing Company,4.0,52.0,3.83,44.0,"6 East Dexter Plaza Pearl River, New York, 10965 United States ","Brewery, Bar, Eatery",Pearl River,New York,-74.022847,41.0584046,"Pearl River, New York",-74.0218063,41.0589855
The Dutch Ale House,3.93,11.0,NA,2.0,"255 Main Street Saugerties, New York, 12477 United States ","Brewery, Bar, Eatery",Saugerties,New York,-73.95344829999999,42.0777471,"Saugerties, New York",-73.95291259999999,42.0775906
The Flagship Brewing Company,3.99,17.0,3.9,9.0,"40 Minthorne Street Staten Island, New York, 10301 United States ","Brewery, Bar",Staten Island,New York,-74.0759915,40.6366344,"Staten Island, New York",-74.1502007,40.5795317
The Good Shepherds Brewing Co.,4.64,1.0,NA,6.0,"31 Loop Rd Ste 1 Auburn, New York, 13021-3823 United States ","Brewery, Bar",Auburn,New York,-76.56529669999999,42.9325653,"Auburn, New York",-76.5660529,42.9317335
The Lost Borough Brewing Co.,4.49,1.0,3.37,14.0,"543 Atlantic Ave Rochester, New York, 14609-7316 United States ","Brewery, Bar",Rochester,New York,-77.5688038,43.1559724,"Rochester, New York",-77.6109219,43.16103
The North Brewery,4.45,52.0,4.18,95.0,"110 Washington Ave Endicott, New York, 13760-5307 United States ",Brewery,Endicott,New York,-76.0484979,42.1020024,"Endicott, New York",-76.04936839999999,42.098408
The Scalehouse Brewpub,3.09,8.0,2.93,8.0,"23 Cinema Dr Ithaca, New York, 14850 United States ","Brewery, Bar, Eatery",Ithaca,New York,-76.4776806,42.4795275,"Ithaca, New York",-76.5018807,42.4439614
The VB Brewery,4.18,4.0,3.7,33.0,"6606 Route 96 Victor, New York, 14564-1409 United States ","Brewery, Bar",Victor,New York,-77.389293,42.97742299999999,"Victor, New York",-77.4088794,42.9825633
Thin Man Brewery,3.69,2.0,NA,0.0,"492 Elmwood Ave Buffalo, New York, 14222 United States","Brewery, Bar, Eatery",Buffalo,New York,-78.8774115,42.9103912,"Buffalo, New York",-78.8783689,42.88644679999999
Third Rail Beer,NA,NA,4.07,8.0,"928 Broadway New York, New York, 10010-6008 United States",Brewery,New York,New York,-73.9891408,40.740032,"New York, New York",-74.0059413,40.7127837
Three Heads Brewing,NA,NA,NA,1.0,"186 Atlantic Ave Rochester, New York, 14607-1213 United States ",Brewery,Rochester,New York,-77.57965,43.156742,"Rochester, New York",-77.6109219,43.16103
Three Heads Brewing - Tasting Room,4.28,7.0,3.63,30.0,"300 Village Square Blvd Honeoye Falls, New York, 14472 United States ","Brewery, Bar",Honeoye Falls,New York,-77.60347519999999,42.9520817,"Honeoye Falls, New York",-77.5902759,42.9522855
Three Huskies Brewing,4.27,6.0,3.95,16.0,"401 Lakeshore Dr Canandaigua, New York, 14424-2338 United States ","Brewery, Bar, Eatery",Canandaigua,New York,-77.2523959,42.8722522,"Canandaigua, New York",-77.2816984,42.887535
Threes Brewing,4.09,62.0,4.06,64.0,"333 Douglass St Brooklyn, New York, 11217-3115 United States ","Brewery, Bar, Eatery",Brooklyn,New York,-73.982175,40.679714,"Brooklyn, New York",-73.9441579,40.6781784
Transmitter Brewing,NA,NA,3.93,52.0,"53-02 11th St. Queens, New York, 11101 United States ",Brewery,Queens,New York,-73.9527181,40.7402434,"Queens, New York",-73.7948516,40.7282239
Tweaking Frog Brewing Company,NA,NA,NA,4.0,"211-A Main St Farmingdale, New York, 11735 United States ","Brewery, Bar",Farmingdale,New York,-73.4458301,40.734091,"Farmingdale, New York",-73.4454009,40.7325997
Twin Fork Beer Co.,NA,NA,3.76,1.0,"PO Box 492 Calverton, New York, 11933-0492 United States ",Brewery,Calverton,New York,-72.74343309999999,40.90648729999999,"Calverton, New York",-72.74343309999999,40.90648729999999
Twisted Rail Brewing Company,4.01,9.0,3.71,21.0,"169 Lakeshore Dr Canandaigua, New York, 14424 United States ","Brewery, Bar",Canandaigua,New York,-77.26216099999999,42.8749983,"Canandaigua, New York",-77.2816984,42.887535
Two Goats Brewing,3.97,37.0,3.89,18.0,"5027 State Rt 414 Hector, New York, 14841 United States ","Brewery, Bar, Eatery",Hector,New York,-76.86896150000001,42.4770507,"Hector, New York",-76.8724586,42.5006271
Upstate Brewing Company,NA,NA,3.9,14.0,"3028 Lake Rd Elmira, New York, 14903-1409 United States ",Brewery,Elmira,New York,-76.8118215,42.1332972,"Elmira, New York",-76.8077338,42.0897965
Valcour Brewing Company,3.78,1.0,NA,4.0,"49 Ohio Ave Plattsburgh, New York, 12903-4409 United States","Brewery, Bar",Plattsburgh,New York,-73.44622919999999,44.6828517,"Plattsburgh, New York",-73.4529124,44.6994873
Van Dyck - Mad Jack Brewing,3.11,5.0,3.81,14.0,"237 Union St Schenectady, New York, 12305 United States ","Brewery, Bar, Eatery",Schenectady,New York,-73.9431374,42.8165275,"Schenectady, New York",-73.9395687,42.8142432
Vanberg & DeWulf,NA,NA,3.96,3.0,"52 Pioneer Street Cooperstown, New York, 13326 United States ",Brewery,Cooperstown,New York,-74.9248439,42.699786,"Cooperstown, New York",-74.92432099999999,42.7006303
Wagner Valley Brewing Co.,3.81,50.0,3.76,17.0,"9322 Route 414 Lodi, New York, 14860 United States ","Brewery, Bar, Eatery",Lodi,New York,-76.85795259999999,42.5721581,"Lodi, New York",-76.82245569999999,42.6139597
War Flag Ales & Lagers,NA,NA,3.69,3.0,"649 Morgan Ave Brooklyn, New York, 11222-3745 United States ",Brewery,Brooklyn,New York,-73.9401589,40.7265997,"Brooklyn, New York",-73.9441579,40.6781784
War Horse Brewing Company,NA,NA,3.65,14.0,"623 Lerch Rd Geneva, New York, 14456 United States ",Brewery,Geneva,New York,-76.926318,42.820852,"Geneva, New York",-76.985557,42.8679836
Water Street Brewing Co.,3.81,27.0,3.55,33.0,"168 Water Street Binghamton, New York, 13901 United States ","Brewery, Bar, Eatery",Binghamton,New York,-75.91411760000001,42.0993646,"Binghamton, New York",-75.91797380000001,42.09868669999999
Westtown Brew Works,3.99,5.0,NA,9.0,"236 Schefflers Rd Westtown, New York, 10998-3804 United States","Brewery, Bar",Westtown,New York,-74.5338031,41.3133116,"Westtown, New York",-74.5398821,41.336761
Wet Planet Beverage Co.,NA,NA,NA,0.0,"Utica, New York, 13502, United States",Brewery,Utica,New York,-75.232664,43.100903,"Utica, New York",-75.232664,43.100903
Willow Creek Farm Brewery,NA,NA,NA,0.0,"319 Bliss Gulf Rd Oneonta, New York, 13820-4158 United States ",Brewery,Oneonta,New York,-75.022374,42.590567,"Oneonta, New York",-75.0637746,42.4528571
Willow Rock Brewing Company,4.0,3.0,NA,5.0,"115 Game Rd Syracuse, New York, 13210-4216 United States ","Brewery, Bar",Syracuse,New York,-76.1318,43.012523,"Syracuse, New York",-76.14742439999999,43.0481221
Wolf Hollow Brewing Company,NA,NA,3.44,14.0,"2305 West Glenville Rd West Glenville, New York, 12010 United States",Brewery,West Glenville,New York,-74.05519559999999,42.928704,"West Glenville, New York",-74.0520717,42.9292419
Wood Boat Brewery,4.08,1.0,NA,5.0,"625 Mary St Clayton, New York, 13624-1156 United States ","Brewery, Bar, Eatery",Clayton,New York,-76.0875976,44.2383085,"Clayton, New York",-76.0857759,44.239491
Woodcock Brothers Brewing Company,3.78,3.0,3.59,10.0,"638 Lake St Wilson, New York, 14172-9600 United States ","Brewery, Bar, Eatery",Wilson,New York,-78.8255415,43.2981839,"Wilson, New York",-78.82614989999999,43.3097775
Woodland Hop Farm & Fermentation,3.94,2.0,NA,12.0,"6002 Trenton Rd Marcy, New York, 13502 United States ","Brewery, Bar",Marcy,New York,-75.2133312,43.15092019999999,"Marcy, New York",-75.2915564,43.1706253
Woodland Hop Farm & Fermentation,4.06,3.0,4.07,11.0,"6002 Trenton Rd Utica, New York, 13502-6224 United States ","Brewery, Bar",Utica,New York,-75.21238699999999,43.150969,"Utica, New York",-75.232664,43.100903
WT Brews,NA,NA,3.8,13.0,"3 W Genesee St Baldwinsville, New York, 13027-1104 United States ",Brewery,Baldwinsville,New York,-76.33307119999999,43.1584802,"Baldwinsville, New York",-76.332709499999993,43.15867859999999
Yard Owl Craft Brewery,3.98,2.0,4.0,11.0,"19 Osprey Ln Gardiner, New York, 12525 United States ","Brewery, Bar",Gardiner,New York,-74.14682499999999,41.691289,"Gardiner, New York",-74.1504231,41.6798157
Yonkers Brewing Co.,4.44,10.0,3.96,40.0,"92 Main St Yonkers, New York, 10701 United States ","Brewery, Bar, Eatery",Yonkers,New York,-73.90287339999999,40.9343654,"Yonkers, New York",-73.89874689999999,40.9312099
10th District Brewing Co.,NA,NA,3.43,10.0,"491 Washington St Abington, Massachusetts, 02351-2419 United States",Brewery,Abington,Massachusetts,-70.9458855,42.1056865,"Abington, Massachusetts",-70.9453218,42.1048228
3 Beards Beer Company,NA,NA,3.66,2.0,"189 W Main St Holyoke, Massachusetts, 01532-1801 United States",Brewery,Holyoke,Massachusetts,-72.60468569999999,42.2022941,"Holyoke, Massachusetts",-72.6162009,42.2042586
3cross Brewing Company,2.8,11.0,4.03,30.0,"26 Cambridge St Worcester, Massachusetts, 01603-2343 United States","Brewery, Bar",Worcester,Massachusetts,-71.8304129,42.244075,"Worcester, Massachusetts",-71.8022934,42.2625932
50 Back Brewing Company,NA,NA,2.89,1.0,"5 Village Rd Pepperell, Massachusetts, 01463-1182 United States ",Brewery,Pepperell,Massachusetts,-71.598539,42.6738266,"Pepperell, Massachusetts",-71.5884363,42.66592319999999
Abandoned Building Brewery,4.39,14.0,3.98,14.0,"142 Pleasant Street Easthampton, Massachusetts, 01027 United States ","Brewery, Bar",Easthampton,Massachusetts,-72.6615712,42.2741936,"Easthampton, Massachusetts",-72.66897999999999,42.266757
Aeronaut Brewing Company,4.0,42.0,3.83,39.0,"14 Tyler St Somerville, Massachusetts, 02143-3224 United States ","Brewery, Bar",Somerville,Massachusetts,-71.1056689,42.3817829,"Somerville, Massachusetts",-71.0994968,42.3875968
Amherst Brewing,3.97,91.0,3.76,35.0,"10 University Dr Amherst, Massachusetts, 01002 United States ","Brewery, Bar, Eatery",Amherst,Massachusetts,-72.5318238,42.3727556,"Amherst, Massachusetts",-72.5198537,42.3732216
Backlash Beer Company,NA,NA,3.82,7.0,"108 Cabot Street Holyoke, Massachusetts, 01040 United States",Brewery,Holyoke,Massachusetts,-72.610264,42.201327,"Holyoke, Massachusetts",-72.6162009,42.2042586
Bad Martha Brewing Co.,3.81,1.0,3.6,16.0,"270 Upper Main St Edgartown, Massachusetts, 02539 United States ","Brewery, Bar",Edgartown,Massachusetts,-70.5261117,41.3937591,"Edgartown, Massachusetts",-70.5133599,41.3890052
Banner Beer Company,NA,NA,3.48,6.0,"4 Main St Williamsburg, Massachusetts, 01096-9428 United States ",Brewery,Williamsburg,Massachusetts,-72.7304025,42.3922799,"Williamsburg, Massachusetts",-72.7300929,42.3928305
Barrel House Z (BHZ),NA,NA,4.06,4.0,"95 Woodrock Rd Weymouth, Massachusetts, 02189 United States ",Brewery,Weymouth,Massachusetts,-70.927863,42.19247499999999,"Weymouth, Massachusetts",-70.94103559999999,42.2180724
Barrington Brewery & Restaurant,3.83,58.0,3.68,23.0,"420 Stockbridge Road Great Barrington, Massachusetts, 01230 United States ","Brewery, Eatery",Great Barrington,Massachusetts,-73.34406849999999,42.213126,"Great Barrington, Massachusetts",-73.362008,42.1959798
Battle Road Brewing Company,NA,NA,3.74,4.0,"18 Elgin St Stoughton, Massachusetts, 02072-4150 United States ",Brewery,Stoughton,Massachusetts,-71.09295469999999,42.1274823,"Stoughton, Massachusetts",-71.10920120000002,42.1229099
Bay State Beer Company,NA,NA,3.39,5.0,"1110 Whitemore St Leicester, Massachusetts, 01524-1852 United States ",Brewery,Leicester,Massachusetts,-71.94209239999999,42.2792431,"Leicester, Massachusetts",-71.90868429999999,42.245926
Bent Water Brewing Company,5.0,1.0,3.59,26.0,"180 Commercial St Unit 18 Lynn, Massachusetts, 01905-2910 United States","Brewery, Bar",Lynn,Massachusetts,-70.95730689999999,42.4566287,"Lynn, Massachusetts",-70.9494938,42.46676300000001
Bentley Brewing Company / Dark Horse Tavern,4.23,4.0,3.7,18.0,"12 Crane Street Southbridge, Massachusetts, 01550 United States ","Brewery, Bar, Eatery",Southbridge,Massachusetts,-72.0352456,42.0804443,"Southbridge, Massachusetts",-72.0333905,42.0751065
Berkley Beer Company,NA,NA,3.98,10.0,"17 Cotley St Berkley, Massachusetts, 02779-1101 United States ",Brewery,Berkley,Massachusetts,-71.05147099999999,41.855168,"Berkley, Massachusetts",-71.08282220000001,41.8459347
Berkshire Brewing Company Inc.,NA,NA,3.77,53.0,"12 Railroad St South Deerfield, Massachusetts, 01373-0096 United States ",Brewery,South Deerfield,Massachusetts,-72.609409,42.478684,"South Deerfield, Massachusetts",-72.6078667,42.4773097
Big Elm Brewing,NA,NA,3.69,18.0,"65 Silver St Sheffield, Massachusetts, 01257-9626 United States ",Brewery,Sheffield,Massachusetts,-73.350458,42.0929689,"Sheffield, Massachusetts",-73.35514359999999,42.1099885
Black Hat Brew Works,3.9,6.0,4.02,17.0,"25 Scotland Blvd Unit 1 Bridgewater, Massachusetts, 02324-2302 United States ","Brewery, Bar",Bridgewater,Massachusetts,-71.0036981,41.9732102,"Bridgewater, Massachusetts",-70.9750541,41.9903519
Blatant Brewery,NA,NA,3.6,5.0,"4 Main St Williamsburg, Massachusetts, 01096-9428 United States",Brewery,Williamsburg,Massachusetts,-72.7304025,42.3922799,"Williamsburg, Massachusetts",-72.7300929,42.3928305
Blue Hills Brewery,NA,NA,3.48,13.0,"1020 Turnpike St. #3B Canton, Massachusetts, 02021 United States ",Brewery,Canton,Massachusetts,-71.10379309999999,42.1505239,"Canton, Massachusetts",-71.1447732,42.1584324
Bog Iron Brewing,3.81,28.0,4.04,24.0,"33 W Main St Ste F Norton, Massachusetts, 02766-2711 United States","Brewery, Bar",Norton,Massachusetts,-71.19018369999999,41.9656168,"Norton, Massachusetts",-71.1869963,41.9667703
Bone Up Brewing Company,2.92,2.0,3.54,14.0,"38 Norman St Everett, Massachusetts, 02149 United States ","Brewery, Bar",Everett,Massachusetts,-71.0658313,42.40545900000001,"Everett, Massachusetts",-71.0536625,42.40843
Boston Beer Company (Samuel Adams),NA,118.0,3.63,138.0,"30 Germania St Jamaica Plain, Massachusetts, 02130-2315 United States ",Brewery,Jamaica Plain,Massachusetts,-71.1030944,42.31446469999999,"Jamaica Plain, Massachusetts",-71.1151431,42.3097365
Boston Beer Works - Canal Street,3.81,116.0,3.64,131.0,"112 Canal St Boston, Massachusetts, 02114 United States ","Brewery, Bar, Eatery",Boston,Massachusetts,-71.0604379,42.364407,"Boston, Massachusetts",-71.0588801,42.3600825
Boston Beer Works - Fenway,3.87,196.0,3.64,131.0,"61 Brookline Avenue Boston, Massachusetts, 02215 United States ","Brewery, Bar, Eatery",Boston,Massachusetts,-71.09910339999999,42.34718,"Boston, Massachusetts",-71.0588801,42.3600825
Brazo Fuerte Artisanal Beer,NA,NA,NA,6.0,"Watertown, Massachusetts, 02472, United States ",Brewery,Watertown,Massachusetts,-71.1828321,42.3709299,"Watertown, Massachusetts",-71.1828321,42.3709299
Brew Practitioners Brewery & Taproom,4.21,1.0,NA,10.0,"36 Main St Florence, Massachusetts, 01062-3152 United States ","Brewery, Bar",Florence,Massachusetts,-72.66833419999999,42.3347851,"Florence, Massachusetts",-72.6719853,42.335505
Brewmaster Jack,NA,NA,3.98,15.0,"Northampton, Massachusetts, 01040, United States ",Brewery,Northampton,Massachusetts,-72.6269437,42.2172092,"Northampton, Massachusetts",-72.64120129999999,42.3250896
Brewmasters Tavern,4.23,2.0,NA,0.0,"4 Main Street Williamsburg, Massachusetts, 01096 United States ","Brewery, Bar, Eatery",Williamsburg,Massachusetts,-72.7304025,42.3922799,"Williamsburg, Massachusetts",-72.7300929,42.3928305
Brick & Feather Brewery,NA,NA,4.22,13.0,"78 11th St Turners Falls, Massachusetts, 01376-1020 United States ",Brewery,Turners Falls,Massachusetts,-72.56406679999999,42.6020618,"Turners Falls, Massachusetts",-72.5564777,42.60425230000001
Bright Ideas Brewing,NA,NA,NA,3.0,"111 Mass MoCA Way North Adams, Massachusetts, 01247 United States ","Brewery, Bar",North Adams,Massachusetts,-73.11388699999999,42.701947,"North Adams, Massachusetts",-73.1087148,42.70091499999999
Building 8 Brewing (BLDG8),NA,NA,4.17,3.0,"320 Riverside Dr Northampton, Massachusetts, 01062-2767 United States ",Brewery,Northampton,Massachusetts,-72.6649551,42.3202703,"Northampton, Massachusetts",-72.64120129999999,42.3250896
Busbee Brewing,NA,NA,NA,3.0,"140 Musterfield Heights Clarksburg, Massachusetts, 01247 United States ",Brewery,Clarksburg,Massachusetts,-73.0900839,42.7243874,"Clarksburg, Massachusetts",-73.092685,42.7170314
Buzzards Bay Brewing,3.26,6.0,3.67,18.0,"98 Horseneck Road Westport, Massachusetts, 02790 United States ","Brewery, Bar",Westport,Massachusetts,-71.0501333,41.567772,"Westport, Massachusetts",-71.0735476,41.5700183
Cambridge Brewing Company,4.06,335.0,3.99,103.0,"1 Kendall Sq Cambridge, Massachusetts, 02139-1500 United States ","Brewery, Bar, Eatery",Cambridge,Massachusetts,-71.09014619999999,42.3672848,"Cambridge, Massachusetts",-71.10973349999999,42.3736158
Cape Ann Brewing Company,4.14,42.0,3.75,40.0,"11 Rogers Street Gloucester, Massachusetts, 01930 United States ","Brewery, Bar, Eatery",Gloucester,Massachusetts,-70.665112,42.611207,"Gloucester, Massachusetts",-70.6619888,42.6159285
Cape Cod Beer,4.06,34.0,3.78,21.0,"1336 Phinney's Lane Hyannis, Massachusetts, 02601 United States ","Brewery, Bar",Hyannis,Massachusetts,-70.3100899,41.6781606,"Hyannis, Massachusetts",-70.2881124,41.6524911
Castle Island Brewing Co.,NA,NA,4.12,11.0,"31 Astor Ave Norwood, Massachusetts, 02062-5016 United States ",Brewery,Norwood,Massachusetts,-71.19232099999999,42.168847,"Norwood, Massachusetts",-71.19896949999999,42.19439089999999
Cisco Brewers Inc.,4.11,39.0,3.72,30.0,"5 Bartlett Farm Road Nantucket, Massachusetts, 02584 United States ","Brewery, Bar",Nantucket,Massachusetts,-70.131438,41.263609,"Nantucket, Massachusetts",-70.099451,41.2834704
Clown Shoes,NA,NA,4.05,46.0,"23 Hayward St. Ipswich, Massachusetts, 01938 United States",Brewery,Ipswich,Massachusetts,-70.843912,42.672726,"Ipswich, Massachusetts",-70.8411558,42.6791832
Cochituate Brewing,NA,NA,NA,3.0,"35 Davelin Rd Wayland, Massachusetts, 01778-3137 United States ",Brewery,Wayland,Massachusetts,-71.359724,42.341116,"Wayland, Massachusetts",-71.3614484,42.3625953
Cold Harbor Brewing,4.48,10.0,3.81,22.0,"108 Milk St Ste 6 Westborough, Massachusetts, 01581-1228 United States ","Brewery, Bar",Westborough,Massachusetts,-71.6250902,42.273929,"Westborough, Massachusetts",-71.61612939999999,42.2695216
CraftRoots Brewing,NA,NA,NA,3.0,"482 E Main St Milford, Massachusetts, 01757-2816 United States ",Brewery,Milford,Massachusetts,-71.4806212,42.1648044,"Milford, Massachusetts",-71.5163049,42.1398577
Deadwood Café & Brewery,2.38,3.0,NA,5.0,"820 Morrissey Blvd Dorchester, Massachusetts, 02122 United States ","Brewery, Bar, Eatery",Dorchester,Massachusetts,-71.0462414,42.293875,"Dorchester, Massachusetts",-71.067605,42.30163049999999
Deja Brew,4.12,3.0,NA,0.0,"510B Boston Tpke Ste B Shrewsbury, Massachusetts, 01545 United States ",Brewery,Shrewsbury,Massachusetts,-71.7182401,42.276191,"Shrewsbury, Massachusetts",-71.71284709999999,42.2959267
Devil's Purse Brewing Co.,NA,NA,4.04,22.0,"120 Great Western Rd South Dennis, Massachusetts, 02660-3715 United States",Brewery,South Dennis,Massachusetts,-70.141678,41.688555,"South Dennis, Massachusetts",-70.1515342,41.7020781
Dorchester Brewing Company,3.75,4.0,3.38,8.0,"1250 Massachusetts Ave Dorchester, Massachusetts, 02125 United States","Brewery, Bar",Dorchester,Massachusetts,-71.0622449,42.3221356,"Dorchester, Massachusetts",-71.067605,42.30163049999999
Down the Road Brewery,NA,NA,3.78,15.0,"Newton, Massachusetts, 02461, United States",Brewery,Newton,Massachusetts,-71.2072321,42.3134848,"Newton, Massachusetts",-71.20922139999999,42.3370413
Eagle Brook Saloon,4.0,22.0,NA,11.0,"258 Dedham St Norfolk, Massachusetts, 02056-1558 United States ","Brewery, Bar, Eatery",Norfolk,Massachusetts,-71.3026512,42.0884718,"Norfolk, Massachusetts",-71.3250563,42.1195426
Element Brewing Company,4.13,3.0,3.76,17.0,"16 Bridge St Millers Falls, Massachusetts, 01349-1336 United States ","Brewery, Bar",Millers Falls,Massachusetts,-72.4949573,42.578857,"Millers Falls, Massachusetts",-72.4937898,42.57830190000001
Enlightenment Ales,NA,NA,4.12,11.0,"Malden, Massachusetts, 02149, United States ",Brewery,Malden,Massachusetts,-71.0557196,42.4041313,"Malden, Massachusetts",-71.066163,42.4250964
Entitled Brewing Company,NA,NA,4.02,3.0,"21 North St Hingham, Massachusetts, 02043 United States ",Brewery,Hingham,Massachusetts,-70.88501049999999,42.24457230000001,"Hingham, Massachusetts",-70.889759,42.2418172
Exhibit 'A' Brewing Company,4.11,5.0,4.13,8.0,"81 Morton St Framingham, Massachusetts, 01702-7153 United States ","Brewery, Bar",Framingham,Massachusetts,-71.401838,42.2787,"Framingham, Massachusetts",-71.4161565,42.279286
Flying Dreams Brewing Co.,NA,NA,4.03,11.0,"455 Park Ave Worcester, Massachusetts, 01610-1226 United States ",Brewery,Worcester,Massachusetts,-71.82547989999999,42.2546082,"Worcester, Massachusetts",-71.8022934,42.2625932
Fort Hill Brewery,3.93,8.0,3.79,13.0,"30 Fort Hill Rd Easthampton, Massachusetts, 01027-1268 United States ","Brewery, Bar",Easthampton,Massachusetts,-72.6401904,42.2812571,"Easthampton, Massachusetts",-72.66897999999999,42.266757
Framingham Beer Works,3.79,16.0,3.64,131.0,"345 Cochituate Rd Framingham, Massachusetts, 01701-4607 United States ","Brewery, Bar, Eatery",Framingham,Massachusetts,-71.4002711,42.30213020000001,"Framingham, Massachusetts",-71.4161565,42.279286
Frosty Knuckle Brewing Company,NA,NA,3.54,3.0,"23 Hayward St. Ipswich, Massachusetts, 01938 United States",Brewery,Ipswich,Massachusetts,-70.843912,42.672726,"Ipswich, Massachusetts",-70.8411558,42.6791832
Gardner Ale House,4.06,40.0,3.92,17.0,"74 Parker Street Gardner, Massachusetts, 01440 United States ","Brewery, Bar, Eatery",Gardner,Massachusetts,-71.99713059999999,42.57576700000001,"Gardner, Massachusetts",-71.998133,42.5750883
Gentile Brewing Company,NA,NA,NA,5.0,"59 Park St Unit 1 Beverly, Massachusetts, 01915-4253 United States ","Brewery, Bar",Beverly,Massachusetts,-70.8843902,42.5493947,"Beverly, Massachusetts",-70.880049,42.5584283
Glass Bottom Brewery,NA,NA,3.39,9.0,"480 Pleasant St Lee, Massachusetts, 01238-9265 United States ",Brewery,Lee,Massachusetts,-73.2479709,42.2854061,"Lee, Massachusetts",-73.2481951,42.3042151
Goodfellow's Brewing Co.,NA,NA,3.69,5.0,"8 Race Course Rd Lakeville, Massachusetts, 02347-1826 United States",Brewery,Lakeville,Massachusetts,-70.9747241,41.8154802,"Lakeville, Massachusetts",-70.9495226,41.8459169
Harpoon Brewery & Beer Hall,4.08,224.0,3.76,84.0,"306 Northern Ave Boston, Massachusetts, 02210-2324 United States ","Brewery, Bar",Boston,Massachusetts,-71.03409649999999,42.3471775,"Boston, Massachusetts",-71.0588801,42.3600825
Henry and Fran Brewing Company,NA,NA,NA,5.0,"185 Laurel St West Boylston, Massachusetts, 01583-1535 United States ",Brewery,West Boylston,Massachusetts,-71.810147,42.39112,"West Boylston, Massachusetts",-71.78562699999999,42.3667589
High & Mighty Beer Co.,NA,NA,3.57,11.0,"108 Cabot Street Holyoke, Massachusetts, 01040 United States ",Brewery,Holyoke,Massachusetts,-72.610264,42.201327,"Holyoke, Massachusetts",-72.6162009,42.2042586
High Horse Brewing,3.8,20.0,3.85,19.0,"24 N Pleasant St Amherst, Massachusetts, 01002-1703 United States ","Brewery, Bar, Eatery",Amherst,Massachusetts,-72.52025929999999,42.3761693,"Amherst, Massachusetts",-72.5198537,42.3732216
Hingham Beer Works,3.87,15.0,3.64,131.0,"18 Shipyard Drive Hingham, Massachusetts, 02043 United States ","Brewery, Bar, Eatery",Hingham,Massachusetts,-70.9228157,42.2519473,"Hingham, Massachusetts",-70.889759,42.2418172
Hog Island Beer Co.,3.5,3.0,NA,4.0,"28 West Rd Orleans, Massachusetts, 02653 United States ","Brewery, Bar, Eatery",Orleans,Massachusetts,-70.00080129999999,41.7830021,"Orleans, Massachusetts",-69.9897323,41.7898354
Homefield Brewing,NA,NA,NA,7.0,"3 Arnold Rd Sturbridge, Massachusetts, 01518 United States ","Brewery, Bar",Sturbridge,Massachusetts,-72.1063454,42.1157407,"Sturbridge, Massachusetts",-72.0787059,42.1084122
Honest Weight Artisan Beer,4.22,2.0,4.05,24.0,"131 W Main St Ste 104 Orange, Massachusetts, 01364-1159 United States","Brewery, Bar",Orange,Massachusetts,-72.3155457,42.5916789,"Orange, Massachusetts",-72.3097914,42.590354
Hopsters,3.98,22.0,3.67,9.0,"292 Centre Street Newton, Massachusetts, 02458 United States ","Brewery, Bar, Eatery",Newton,Massachusetts,-71.1846242,42.3583332,"Newton, Massachusetts",-71.20922139999999,42.3370413
Howler Brewery,NA,NA,3.21,7.0,"18 Elm St Hatfield, Massachusetts, 01038-9708 United States ",Brewery,Hatfield,Massachusetts,-72.609572,42.366845,"Hatfield, Massachusetts",-72.5981843,42.3709761
Idle Hands Craft Ales,3.95,12.0,3.87,42.0,"89 Commercial St Malden, Massachusetts, 02148-5509 United States ","Brewery, Bar",Malden,Massachusetts,-71.0747463,42.4243919,"Malden, Massachusetts",-71.066163,42.4250964
Independent Fermentations Brewing (IndieFerm),3.75,3.0,3.94,15.0,"127 Camelot Dr Plymouth, Massachusetts, 02360 United States ","Brewery, Bar",Plymouth,Massachusetts,-70.6459686,41.92785140000001,"Plymouth, Massachusetts",-70.6672621,41.9584457
Ipswich Ale Brewery,4.08,5.0,3.69,41.0,"2 Brewery Place Ipswich, Massachusetts, 01938 United States ","Brewery, Bar, Eatery",Ipswich,Massachusetts,-70.841308,42.6808876,"Ipswich, Massachusetts",-70.8411558,42.6791832
Iron Duke Brewing,4.12,10.0,3.76,17.0,"100 State St Stockhouse 122 Ludlow, Massachusetts, 01056 United States ","Brewery, Bar",Ludlow,Massachusetts,-72.4613191,42.1912926,"Ludlow, Massachusetts",-72.47591899999999,42.1600936
Jack's Abby Brewing,4.48,243.0,4.01,95.0,"100 Clinton Street Framingham, Massachusetts, 01702 United States ","Brewery, Bar, Eatery",Framingham,Massachusetts,-71.4108281,42.280344,"Framingham, Massachusetts",-71.4161565,42.279286
John Harvard's Brewery & Ale House,3.66,104.0,3.57,180.0,"33 Dunster St Cambridge, Massachusetts, 02138 United States ","Brewery, Bar, Eatery",Cambridge,Massachusetts,-71.1192827,42.3726047,"Cambridge, Massachusetts",-71.10973349999999,42.3736158
John Harvard's Brewery & Ale House,3.5,1.0,3.57,180.0,"37 Corey Road Hancock, Massachusetts, 01701 United States ","Brewery, Eatery",Hancock,Massachusetts,-73.2918746,42.5553967,"Hancock, Massachusetts",-73.32371820000002,42.543138
John Harvard's Brewery & Ale House,3.67,49.0,3.57,180.0,"1 Worcester Road Framingham, Massachusetts, 01701 United States ","Brewery, Bar, Eatery",Framingham,Massachusetts,-71.39622820000001,42.3007455,"Framingham, Massachusetts",-71.4161565,42.279286
Kancamagus Beer Company,NA,NA,4.04,1.0,"108 Cabot St Holyoke, Massachusetts, 01040-6061 United States ",Brewery,Holyoke,Massachusetts,-72.610264,42.201327,"Holyoke, Massachusetts",-72.6162009,42.2042586
Kretschmann Brewing Company,3.91,7.0,3.69,24.0,"9 Frederick St Webster, Massachusetts, 01570-2286 United States ","Brewery, Bar",Webster,Massachusetts,-71.88109,42.050715,"Webster, Massachusetts",-71.88006279999999,42.05009099999999
Lamplighter Brewing Company,NA,NA,NA,0.0,"284 Broadway Cambridge, Massachusetts, 02139-1808 United States","Brewery, Bar",Cambridge,Massachusetts,-71.0979263,42.3677834,"Cambridge, Massachusetts",-71.10973349999999,42.3736158
Larboard Beer Company,NA,NA,NA,1.0,"108 Cabot St Holyoke, Massachusetts, 01040-6061 United States",Brewery,Holyoke,Massachusetts,-72.610264,42.201327,"Holyoke, Massachusetts",-72.6162009,42.2042586
Lefty's Brewing Company,NA,NA,3.59,28.0,"301 Wells St Greenfield, Massachusetts, 01301 United States ",Brewery,Greenfield,Massachusetts,-72.6064339,42.60154600000001,"Greenfield, Massachusetts",-72.5994104,42.587915
Lord Hobo Brewing Company,4.08,22.0,3.84,7.0,"5 Draper St Woburn, Massachusetts, 01801-4521 United States ","Brewery, Bar",Woburn,Massachusetts,-71.128878,42.47621,"Woburn, Massachusetts",-71.1522765,42.4792618
Lowell Beer Works,3.97,25.0,3.64,131.0,"203 Cabot St Lowell, Massachusetts, 01854 United States ","Brewery, Bar, Eatery",Lowell,Massachusetts,-71.31649349999999,42.6505375,"Lowell, Massachusetts",-71.31617179999999,42.6334247
Mayflower Brewing Company,3.93,8.0,3.79,24.0,"12 Resnik Road Plymouth, Massachusetts, 02360 United States ","Brewery, Bar",Plymouth,Massachusetts,-70.7110722,41.9495251,"Plymouth, Massachusetts",-70.6672621,41.9584457
Medusa Brewing Company,4.39,40.0,3.94,75.0,"111 Main St Hudson, Massachusetts, 01749-2210 United States ","Brewery, Bar",Hudson,Massachusetts,-71.56676879999999,42.3909502,"Hudson, Massachusetts",-71.56613899999999,42.39173599999999
Merrimac Brewing Co.,NA,NA,NA,2.0,"12 Maple St West Newbury, Massachusetts, 01985-1504 United States ",Brewery,West Newbury,Massachusetts,-70.9952746,42.7952433,"West Newbury, Massachusetts",-70.989778,42.8014795
Merrimack Ales,NA,NA,3.4,9.0,"92 Bolt St Lowell, Massachusetts, 01852-5316 United States ",Brewery,Lowell,Massachusetts,-71.297567,42.624642,"Lowell, Massachusetts",-71.31617179999999,42.6334247
Mighty Squirrel Brewing,NA,NA,3.4,4.0,"745 Atlantic Ave Boston, Massachusetts, 02111 United States ",Brewery,Boston,Massachusetts,-71.057101,42.350304,"Boston, Massachusetts",-71.0588801,42.3600825
Mystic Brewery,4.14,18.0,4.01,54.0,"174 Williams St Chelsea, Massachusetts, 02150 United States ","Brewery, Bar",Chelsea,Massachusetts,-71.04414799999999,42.3913417,"Chelsea, Massachusetts",-71.0328284,42.3917638
Nashoba Valley Brewery,NA,NA,3.28,16.0,"100 Wattaquadoc Hill Road Bolton, Massachusetts, 01740 United States ",Brewery,Bolton,Massachusetts,-71.6162721,42.4301614,"Bolton, Massachusetts",-71.6078449,42.43342579999999
Naukabout Beer Company,NA,NA,3.48,3.0,"970 Old Reed Rd North Dartmouth, Massachusetts, 02747-1554 United States ",Brewery,North Dartmouth,Massachusetts,-71.040898,41.659674,"North Dartmouth, Massachusetts",-70.9694555,41.640396
